[
	{
		"year": 1994,
		"party": "CDU",
		"name": "Aachener Verlagsgesellschaft mbH",
		"street": "Dresdener Straße 3",
		"plz": "52068",
		"city": "Aachen",
		"lat": "50.7787",
		"lon": "6.1085",
		"val": 16872.57,
		"typ": "jur"
	},
	{
		"year": 1994,
		"party": "CDU",
		"name": "Aesculap AG",
		"street": "Möhringer Straße 125",
		"plz": "78532",
		"city": "Tuttlingen",
		"lat": "47.9796",
		"lon": "8.8074",
		"val": 15338.7,
		"typ": "jur"
	},
	{
		"year": 1994,
		"party": "CDU",
		"name": "ALBA AG & Co. KG",
		"street": "Seeburger Straße 18",
		"plz": "13581",
		"city": "Berlin",
		"lat": "52.5167",
		"lon": "13.4",
		"val": 12526.6,
		"typ": "jur"
	},
	{
		"year": 1994,
		"party": "CDU",
		"name": "ALBA Recycling GmbH",
		"street": "Seeburger Straße 18",
		"plz": "13581",
		"city": "Berlin",
		"lat": "52.5167",
		"lon": "13.4",
		"val": 12526.6,
		"typ": "jur"
	},
	{
		"year": 1994,
		"party": "CDU",
		"name": "Allianz Versicherungen AG",
		"street": "Königinstraße 28",
		"plz": "80802",
		"city": "München",
		"lat": "48.1665",
		"lon": "11.5903",
		"val": 35790.3,
		"typ": "jur"
	},
	{
		"year": 1994,
		"party": "CDU",
		"name": "Alte Leipziger Leben AG",
		"street": "Alte-Leipziger-Platz 1",
		"plz": "61440",
		"city": "Oberursel",
		"lat": "50.1973",
		"lon": "8.5893",
		"val": 17383.86,
		"typ": "jur"
	},
	{
		"year": 1994,
		"party": "CDU",
		"name": "Alusingen GmbH",
		"street": "Alusingen Platz 1",
		"plz": "78224",
		"city": "Singen",
		"lat": "47.7583",
		"lon": "8.8413",
		"val": 13293.54,
		"typ": "jur"
	},
	{
		"year": 1994,
		"party": "CDU",
		"name": "Annus Versandschlachthof GmbH",
		"street": "Koppelberg 2",
		"plz": "17166",
		"city": "Teterow",
		"lat": "53.7833",
		"lon": "12.5667",
		"val": 15338.7,
		"typ": "jur"
	},
	{
		"year": 1994,
		"party": "CDU",
		"name": "Arbeitgeberverband der Metall- und Elektroindustrie Lüdenscheid e.V.",
		"street": "Staberger Straße 5",
		"plz": "58511",
		"city": "Lüdenscheid",
		"lat": "51.2169",
		"lon": "7.6457",
		"val": 20451.6,
		"typ": "jur"
	},
	{
		"year": 1994,
		"party": "CDU",
		"name": "Arbeitsgemeinschaft umweltfreundlicher Verpackungs-Recycling-Systeme",
		"street": "Konrad-Adenauer-Allee",
		"plz": "53113",
		"city": "Bonn",
		"lat": "50.7231",
		"lon": "7.1068",
		"val": 15338.7,
		"typ": "jur"
	},
	{
		"year": 1994,
		"party": "CDU",
		"name": "Axtmann Baubetreungs-AG",
		"street": "Gräfestraße 34",
		"plz": "04129",
		"city": "Leipzig",
		"lat": "51.3674",
		"lon": "12.3909",
		"val": 12782.25,
		"typ": "jur"
	},
	{
		"year": 1994,
		"party": "CDU",
		"name": "Bertelsmann AG",
		"street": "C.-Bertelsmann-Straße 270",
		"plz": "33335",
		"city": "Gütersloh",
		"lat": "51.9316",
		"lon": "8.4599",
		"val": 66978.99,
		"typ": "jur"
	},
	{
		"year": 1994,
		"party": "CDU",
		"name": "Beyen, Waltraud",
		"street": "Donaustraße 66",
		"plz": "41469",
		"city": "Neuss",
		"lat": "51.1576",
		"lon": "6.7328",
		"val": 12888.35,
		"typ": "nat"
	},
	{
		"year": 1994,
		"party": "CDU",
		"name": "BHW Bausparkasse AG",
		"street": "Lubahnstraße 2",
		"plz": "31789",
		"city": "Hameln",
		"lat": "52.0988",
		"lon": "9.395",
		"val": 15134.18,
		"typ": "jur"
	},
	{
		"year": 1994,
		"party": "CDU",
		"name": "Michael Bob GmbH",
		"street": "Thiemannstraße 1",
		"plz": "12059",
		"city": "Berlin",
		"lat": "52.5167",
		"lon": "13.4",
		"val": 12782.25,
		"typ": "jur"
	},
	{
		"year": 1994,
		"party": "CDU",
		"name": "Bock Kunststoff GmbH & Co. KG",
		"street": "Industriestraße 15",
		"plz": "37115",
		"city": "Duderstadt",
		"lat": "51.5158",
		"lon": "10.2385",
		"val": 14060.48,
		"typ": "jur"
	},
	{
		"year": 1994,
		"party": "CDU",
		"name": "Bock Orthopädische Industrie GmbH & Co. KG",
		"street": "Industriestraße 15",
		"plz": "37115",
		"city": "Duderstadt",
		"lat": "51.5158",
		"lon": "10.2385",
		"val": 14060.48,
		"typ": "jur"
	},
	{
		"year": 1994,
		"party": "CDU",
		"name": "Bruch, Thomas",
		"street": "In der Rumbach 3",
		"plz": "66606",
		"city": "Sankt Wendel",
		"lat": "49.4667",
		"lon": "7.1667",
		"val": 12986.77,
		"typ": "nat"
	},
	{
		"year": 1994,
		"party": "CDU",
		"name": "Bucesius, Gerd, Dr.",
		"street": "Pressehaus",
		"plz": "20079",
		"city": "Hamburg",
		"lat": "53.5544",
		"lon": "9.9946",
		"val": 30677.4,
		"typ": "nat"
	},
	{
		"year": 1994,
		"party": "CDU",
		"name": "Büttner, Klaus",
		"street": "Windischen Straße 8",
		"plz": "99423",
		"city": "Weimar",
		"lat": "50.9804",
		"lon": "11.3263",
		"val": 25053.21,
		"typ": "nat"
	},
	{
		"year": 1994,
		"party": "CDU",
		"name": "Bundesverband deutscher Vermögensberater e.V.",
		"street": "Bismarkstraße 16",
		"plz": "68161",
		"city": "Mannheim",
		"lat": "49.4873",
		"lon": "8.4695",
		"val": 15338.7,
		"typ": "jur"
	},
	{
		"year": 1994,
		"party": "CDU",
		"name": "Bundesverband der deutschen Volks- und Raiffeisenbanken e.V.",
		"street": "Heussallee 5",
		"plz": "53113",
		"city": "Bonn",
		"lat": "50.7231",
		"lon": "7.1068",
		"val": 15338.7,
		"typ": "jur"
	},
	{
		"year": 1994,
		"party": "CDU",
		"name": "Burda, Franz",
		"street": "Zähingerstraße 14",
		"plz": "77652",
		"city": "Offenburg",
		"lat": "48.4765",
		"lon": "7.9438",
		"val": 25564.5,
		"typ": "nat"
	},
	{
		"year": 1994,
		"party": "CDU",
		"name": "Daimler Benz AG",
		"street": "Mercedesstraße 136",
		"plz": "70327",
		"city": "Stuttgart",
		"lat": "48.7667",
		"lon": "9.1833",
		"val": 115040.25,
		"typ": "jur"
	},
	{
		"year": 1994,
		"party": "CDU",
		"name": "Delitzscher Bau Union GmbH & Co. KG",
		"street": "Schkeuditzer Straße 36",
		"plz": "04509",
		"city": "Delitzsch",
		"lat": "51.5252",
		"lon": "12.3376",
		"val": 17933.5,
		"typ": "jur"
	},
	{
		"year": 1994,
		"party": "CDU",
		"name": "Derby Cycle Werke GmbH",
		"street": "Siemensstraße 1",
		"plz": "49661",
		"city": "Cloppenburg",
		"lat": "52.8475",
		"lon": "8.0463",
		"val": 12270.96,
		"typ": "jur"
	},
	{
		"year": 1994,
		"party": "CDU",
		"name": "Deutsche Bank AG",
		"street": "Taunusanlage 12",
		"plz": "60325",
		"city": "Frankfurt am Main",
		"lat": "50.1136",
		"lon": "8.6578",
		"val": 245419.2,
		"typ": "jur"
	},
	{
		"year": 1994,
		"party": "CDU",
		"name": "Deyhle, Rolf",
		"street": "Plieninger Straße 100",
		"plz": "70587",
		"city": "Stuttgart",
		"lat": "48.7667",
		"lon": "9.1833",
		"val": 12782.25,
		"typ": "nat"
	},
	{
		"year": 1994,
		"party": "CDU",
		"name": "Diehl GmbH & Co.",
		"street": "Stephanstraße 49",
		"plz": "90478",
		"city": "Nürnberg",
		"lat": "49.443",
		"lon": "11.0948",
		"val": 12782.25,
		"typ": "jur"
	},
	{
		"year": 1994,
		"party": "CDU",
		"name": "Douglas Holding AG",
		"street": "Kabeler Straße 4",
		"plz": "58099",
		"city": "Hagen",
		"lat": "51.3987",
		"lon": "7.4901",
		"val": 12782.25,
		"typ": "jur"
	},
	{
		"year": 1994,
		"party": "CDU",
		"name": "Eppers, Hermann",
		"street": "Alte Poststraße 8",
		"plz": "38239",
		"city": "Salzgitter",
		"lat": "52.1221",
		"lon": "10.3761",
		"val": 35308.21,
		"typ": "nat"
	},
	{
		"year": 1994,
		"party": "CDU",
		"name": "Fiege, Heinz",
		"street": "Grüner Weg 91",
		"plz": "48268",
		"city": "Greven",
		"lat": "52.1054",
		"lon": "7.6018",
		"val": 19684.66,
		"typ": "nat"
	},
	{
		"year": 1994,
		"party": "CDU",
		"name": "Frankfurter Versicherungs AG",
		"street": "Taunusanlage 18",
		"plz": "60325",
		"city": "Frankfurt am Main",
		"lat": "50.1136",
		"lon": "8.6578",
		"val": 15338.7,
		"typ": "jur"
	},
	{
		"year": 1994,
		"party": "CDU",
		"name": "Groth, Klaus",
		"street": "Kurfürstendamm 61",
		"plz": "10707",
		"city": "Berlin",
		"lat": "52.5167",
		"lon": "13.4",
		"val": 12782.25,
		"typ": "nat"
	},
	{
		"year": 1994,
		"party": "CDU",
		"name": "Industrie + Wohnbau Groth & Graalfs GmbH",
		"street": "Kurfürstendamm 62",
		"plz": "10707",
		"city": "Berlin",
		"lat": "52.5167",
		"lon": "13.4",
		"val": 12782.25,
		"typ": "jur"
	},
	{
		"year": 1994,
		"party": "CDU",
		"name": "Grundkreditbank eG",
		"street": "Budapester Straße 35",
		"plz": "10787",
		"city": "Berlin",
		"lat": "52.5167",
		"lon": "13.4",
		"val": 15338.7,
		"typ": "jur"
	},
	{
		"year": 1994,
		"party": "CDU",
		"name": "Handelsblatt GmbH",
		"street": "Kasernenstraße 67",
		"plz": "40213",
		"city": "Düsseldorf",
		"lat": "51.2249",
		"lon": "6.7743",
		"val": 12270.96,
		"typ": "jur"
	},
	{
		"year": 1994,
		"party": "CDU",
		"name": "Franz Haniel & Cie. GmbH",
		"street": "Franz-Haniel-Platz 1",
		"plz": "47119",
		"city": "Duisburg",
		"lat": "51.4632",
		"lon": "6.7328",
		"val": 12782.25,
		"typ": "jur"
	},
	{
		"year": 1994,
		"party": "CDU",
		"name": "Hanse Schiffs- und Maschinenbau GmbH",
		"street": "Industriestraße 8e",
		"plz": "18069",
		"city": "Rostock",
		"lat": "54.1084",
		"lon": "12.0687",
		"val": 12782.25,
		"typ": "jur"
	},
	{
		"year": 1994,
		"party": "CDU",
		"name": "Heußner, Otto",
		"street": "Knüllstraße 15",
		"plz": "36286",
		"city": "Neuenstein",
		"lat": "50.9333",
		"lon": "9.55",
		"val": 25564.5,
		"typ": "nat"
	},
	{
		"year": 1994,
		"party": "CDU",
		"name": "Hooven, Eckart, von",
		"street": "Inselstraße 12b",
		"plz": "22297",
		"city": "Hamburg",
		"lat": "53.6023",
		"lon": "10.0252",
		"val": 29384.53,
		"typ": "nat"
	},
	{
		"year": 1994,
		"party": "CDU",
		"name": "Hornbach Baumarkt AG",
		"street": "Im Gießhübel",
		"plz": "76678",
		"city": "Bornheim",
		"lat": "49.2225",
		"lon": "8.1633",
		"val": 12782.25,
		"typ": "jur"
	},
	{
		"year": 1994,
		"party": "CDU",
		"name": "Hovermann, Hans-Georg",
		"street": "Castroper Straße 120",
		"plz": "44357",
		"city": "Dortmund",
		"lat": "51.5161",
		"lon": "7.4683",
		"val": 19015.5,
		"typ": "nat"
	},
	{
		"year": 1994,
		"party": "CDU",
		"name": "IKW Berlin GmbH",
		"street": "Hochbergweg 2",
		"plz": "12207",
		"city": "Berlin",
		"lat": "52.5167",
		"lon": "13.4",
		"val": 11504.79,
		"typ": "jur"
	},
	{
		"year": 1994,
		"party": "CDU",
		"name": "IWKA AG",
		"street": "Gartenstraße 71",
		"plz": "76135",
		"city": "Karlsruhe",
		"lat": "48.9907",
		"lon": "8.3719",
		"val": 14316.12,
		"typ": "jur"
	},
	{
		"year": 1994,
		"party": "CDU",
		"name": "Jungen, Peter",
		"street": "Gustav-Heinemann-Ufer 54",
		"plz": "50968",
		"city": "Köln",
		"lat": "50.9109",
		"lon": "6.9615",
		"val": 21729.82,
		"typ": "nat"
	},
	{
		"year": 1994,
		"party": "CDU",
		"name": "Kappel Bau Union AG",
		"street": "Pampower Straße 54",
		"plz": "19061",
		"city": "Schwerin",
		"lat": "53.5992",
		"lon": "11.404",
		"val": 20451.6,
		"typ": "jur"
	},
	{
		"year": 1994,
		"party": "CDU",
		"name": "Kathreiner AG",
		"street": "Grubenerstraße 16",
		"plz": "07646",
		"city": "Stadtroda",
		"lat": "50.85",
		"lon": "11.7333",
		"val": 17895.15,
		"typ": "jur"
	},
	{
		"year": 1994,
		"party": "CDU",
		"name": "Khalil Coiffeur de Paris GmbH",
		"street": "Marienstraße 10",
		"plz": "30717",
		"city": "Hannover",
		"lat": "52.3736",
		"lon": "9.7371",
		"val": 11964.19,
		"typ": "jur"
	},
	{
		"year": 1994,
		"party": "CDU",
		"name": "Körtner, Ursula",
		"street": "Wolradstraße 16",
		"plz": "31812",
		"city": "Bad Pyrmont",
		"lat": "51.9817",
		"lon": "9.255",
		"val": 10917.3,
		"typ": "nat"
	},
	{
		"year": 1994,
		"party": "CDU",
		"name": "Kolbow, Siegfried",
		"street": "Greifswalder Chaussee 4",
		"plz": "18507",
		"city": "Grimmen",
		"lat": "54.1072",
		"lon": "13.0599",
		"val": 11759.67,
		"typ": "nat"
	},
	{
		"year": 1994,
		"party": "CDU",
		"name": "Briefmarkenhaus Lothar Krüger",
		"street": "Bayertstraße 27",
		"plz": "80335",
		"city": "München",
		"lat": "48.1427",
		"lon": "11.5552",
		"val": 25155.47,
		"typ": "jur"
	},
	{
		"year": 1994,
		"party": "CDU",
		"name": "Kubera Industriebau",
		"street": "Carl-Zeiss-Straße 28",
		"plz": "31137",
		"city": "Hildesheim",
		"lat": "52.1603",
		"lon": "9.9331",
		"val": 15338.7,
		"typ": "jur"
	},
	{
		"year": 1994,
		"party": "CDU",
		"name": "Laepple, Klaus",
		"street": "Rilkestraße 1",
		"plz": "40474",
		"city": "Düsseldorf",
		"lat": "51.2696",
		"lon": "6.748",
		"val": 14570.44,
		"typ": "nat"
	},
	{
		"year": 1994,
		"party": "CDU",
		"name": "Landesverband der Arbeitgeberverbände Nordrhein-Westfalen e.V.",
		"street": "Uerdinger Straße 58-62",
		"plz": "40474",
		"city": "Düsseldorf",
		"lat": "51.2696",
		"lon": "6.748",
		"val": 30677.4,
		"typ": "jur"
	},
	{
		"year": 1994,
		"party": "CDU",
		"name": "Langhein, Horst",
		"street": "Grindelallee 80",
		"plz": "20146",
		"city": "Hamburg",
		"lat": "53.5666",
		"lon": "9.98",
		"val": 14298.25,
		"typ": "nat"
	},
	{
		"year": 1994,
		"party": "CDU",
		"name": "Meeteren, Udo, van",
		"street": "Jägerhofstraße 29",
		"plz": "40479",
		"city": "Düsseldorf",
		"lat": "51.2167",
		"lon": "6.7667",
		"val": 51129,
		"typ": "nat"
	},
	{
		"year": 1994,
		"party": "CDU",
		"name": "Baggergesellschaft Immenstaadt Meichle & Mohr GmbH & Co. KG",
		"street": "Steigwiesen 5",
		"plz": "88090",
		"city": "Immenstaad am Bodensee",
		"lat": "47.6653",
		"lon": "9.359",
		"val": 12270.96,
		"typ": "jur"
	},
	{
		"year": 1994,
		"party": "CDU",
		"name": "Meier, Hans-Willi",
		"street": "Heinrich-Höschler-Straße 5",
		"plz": "50226",
		"city": "Frechen",
		"lat": "50.9133",
		"lon": "6.8152",
		"val": 10231.6,
		"typ": "nat"
	},
	{
		"year": 1994,
		"party": "CDU",
		"name": "Merkel, Angela",
		"street": "Kennedyallee 105-107",
		"plz": "53175",
		"city": "Bonn",
		"lat": "50.6975",
		"lon": "7.1417",
		"val": 15454.55,
		"typ": "nat"
	},
	{
		"year": 1994,
		"party": "CDU",
		"name": "Hermann Mint GmbH & Co.",
		"street": "Dradenauer Hauptdeich 7",
		"plz": "21129",
		"city": "Hamburg",
		"lat": "53.5194",
		"lon": "9.8994",
		"val": 12782.25,
		"typ": "jur"
	},
	{
		"year": 1994,
		"party": "CDU",
		"name": "NBRG Luhnen & Schmitz GmbH",
		"street": "Am Herbertzhof 6",
		"plz": "47809",
		"city": "Krefeld",
		"lat": "51.3281",
		"lon": "6.616",
		"val": 13395.8,
		"typ": "jur"
	},
	{
		"year": 1994,
		"party": "CDU",
		"name": "Ost-West Media GmbH",
		"street": "Landwehrstraße 8",
		"plz": "80336",
		"city": "München",
		"lat": "48.1345",
		"lon": "11.559",
		"val": 14072.53,
		"typ": "jur"
	},
	{
		"year": 1994,
		"party": "CDU",
		"name": "Osthushenrich, Rosemarie",
		"street": "Osthushenrichstraße 5",
		"plz": "37412",
		"city": "Hörden",
		"lat": "51.6667",
		"lon": "10.2833",
		"val": 12015.32,
		"typ": "nat"
	},
	{
		"year": 1994,
		"party": "CDU",
		"name": "Otremba, Dietmar",
		"street": "Katharinenstraße 18",
		"plz": "10711",
		"city": "Berlin",
		"lat": "52.4958",
		"lon": "13.2871",
		"val": 10737.09,
		"typ": "nat"
	},
	{
		"year": 1994,
		"party": "CDU",
		"name": "Perschau, Hartmut",
		"street": "Sternstraße 3",
		"plz": "39104",
		"city": "Magdeburg",
		"lat": "52.1243",
		"lon": "11.6322",
		"val": 10353.62,
		"typ": "nat"
	},
	{
		"year": 1994,
		"party": "CDU",
		"name": "Pfeifer & Langen KG",
		"street": "Linnicher Straße 48",
		"plz": "50933",
		"city": "Köln",
		"lat": "50.938",
		"lon": "6.8988",
		"val": 19429.02,
		"typ": "jur"
	},
	{
		"year": 1994,
		"party": "CDU",
		"name": "Radio 100.6 Medien GmbH",
		"street": "Katharina-Heinroth-Ufer 1",
		"plz": "10787",
		"city": "Berlin",
		"lat": "52.5167",
		"lon": "13.4",
		"val": 10583.7,
		"typ": "jur"
	},
	{
		"year": 1994,
		"party": "CDU",
		"name": "Rauber, Helmut",
		"street": "Stotzweiler Straße 24b",
		"plz": "66636",
		"city": "Tholey",
		"lat": "49.4833",
		"lon": "7.0333",
		"val": 13166.15,
		"typ": "nat"
	},
	{
		"year": 1994,
		"party": "CDU",
		"name": "Ravenborg, Hans",
		"street": "Mühlenberger Weg 16a",
		"plz": "22587",
		"city": "Hamburg",
		"lat": "53.55",
		"lon": "10",
		"val": 13293.54,
		"typ": "nat"
	},
	{
		"year": 1994,
		"party": "CDU",
		"name": "Rhein-Ruhr Maschinenbau GmbH",
		"street": "Gröbaer Straße 1",
		"plz": "01591",
		"city": "Riesa",
		"lat": "51.3",
		"lon": "13.3",
		"val": 11248.38,
		"typ": "jur"
	},
	{
		"year": 1994,
		"party": "CDU",
		"name": "Roth, Elisabeth",
		"street": "Donnersbergstraße 25",
		"plz": "67227",
		"city": "Frankenthal (Pfalz)",
		"lat": "49.5386",
		"lon": "8.354",
		"val": 15901.12,
		"typ": "nat"
	},
	{
		"year": 1994,
		"party": "CDU",
		"name": "Scheufelen GmbH & Co. KG",
		"street": "Adolf-Scheufelen-Straße 26",
		"plz": "73250",
		"city": "Lenningen",
		"lat": "48.5581",
		"lon": "9.4663",
		"val": 12987.86,
		"typ": "jur"
	},
	{
		"year": 1994,
		"party": "CDU",
		"name": "Sachsenpark Verwaltungs-GmbH",
		"street": "An den Buchen 12",
		"plz": "64546",
		"city": "Mörfelden-Walldorf",
		"lat": "49.9947",
		"lon": "8.5836",
		"val": 17895.15,
		"typ": "jur"
	},
	{
		"year": 1994,
		"party": "CDU",
		"name": "Schöck, Eberhard",
		"street": "Kastanienhalde",
		"plz": "76354",
		"city": "Baden-Baden",
		"lat": "48.75",
		"lon": "8.25",
		"val": 10737.09,
		"typ": "nat"
	},
	{
		"year": 1994,
		"party": "CDU",
		"name": "Schotte & Partner Immobilien GmbH",
		"street": "Westerholter Weg 19",
		"plz": "45657",
		"city": "Recklinghausen",
		"lat": "51.6132",
		"lon": "7.1956",
		"val": 51129,
		"typ": "jur"
	},
	{
		"year": 1994,
		"party": "CDU",
		"name": "Schütze, Diethard",
		"street": "Bundeshaus",
		"plz": "53113",
		"city": "Bonn",
		"lat": "50.7231",
		"lon": "7.1068",
		"val": 12328.7,
		"typ": "nat"
	},
	{
		"year": 1994,
		"party": "CDU",
		"name": "Gottfried Schulz GmbH & Co.",
		"street": "An den Dieken 90",
		"plz": "40885",
		"city": "Ratingen",
		"lat": "51.3394",
		"lon": "6.8528",
		"val": 17895.15,
		"typ": "jur"
	},
	{
		"year": 1994,
		"party": "CDU",
		"name": "Gebrüder Schymura OHG",
		"street": "Güttinger Straße 6",
		"plz": "37120",
		"city": "Bovenden",
		"lat": "51.5883",
		"lon": "9.9263",
		"val": 16065.3,
		"typ": "jur"
	},
	{
		"year": 1994,
		"party": "CDU",
		"name": "Steyer, Gertrud",
		"street": "Rüdesheimer Straße 25",
		"plz": "14197",
		"city": "Berlin",
		"lat": "52.4732",
		"lon": "13.3109",
		"val": 12782.25,
		"typ": "nat"
	},
	{
		"year": 1994,
		"party": "CDU",
		"name": "Stoll, Heinz-Peter",
		"street": "Stollweg 1",
		"plz": "72760",
		"city": "Reutlingen",
		"lat": "48.5094",
		"lon": "9.204",
		"val": 12782.25,
		"typ": "nat"
	},
	{
		"year": 1994,
		"party": "CDU",
		"name": "Stute, Ewald",
		"street": "Breslauer Straße 28a",
		"plz": "33098",
		"city": "Paderborn",
		"lat": "51.7136",
		"lon": "8.7554",
		"val": 15338.7,
		"typ": "nat"
	},
	{
		"year": 1994,
		"party": "CDU",
		"name": "Südzucker AG",
		"street": "Maximillian-Straße 10",
		"plz": "68165",
		"city": "Mannheim",
		"lat": "49.4772",
		"lon": "8.4818",
		"val": 48572.55,
		"typ": "jur"
	},
	{
		"year": 1994,
		"party": "CDU",
		"name": "Turbiner-Veszkow-Wollhändler GbR",
		"street": "Max-Beckmann-Straße 33",
		"plz": "60599",
		"city": "Frankfurt am Main",
		"lat": "50.0994",
		"lon": "8.7142",
		"val": 10737.09,
		"typ": "jur"
	},
	{
		"year": 1994,
		"party": "CDU",
		"name": "Union Beton Niedersachsen GmbH & Co. KG",
		"street": "Herrenstraße 3-5",
		"plz": "30159",
		"city": "Hannover",
		"lat": "52.3736",
		"lon": "9.7371",
		"val": 16463.54,
		"typ": "jur"
	},
	{
		"year": 1994,
		"party": "CDU",
		"name": "Verband der Chemischen Industrie e.V.",
		"street": "Karlstraße 21",
		"plz": "60329",
		"city": "Frankfurt am Main",
		"lat": "50.106",
		"lon": "8.6627",
		"val": 31444.34,
		"typ": "jur"
	},
	{
		"year": 1994,
		"party": "CDU",
		"name": "Verband der Metall- und Elektroindustrie Nordrhein-Westfalen e.V.",
		"street": "Uerdinger Straße 58-62",
		"plz": "40474",
		"city": "Düsseldorf",
		"lat": "51.2696",
		"lon": "6.748",
		"val": 76693.5,
		"typ": "jur"
	},
	{
		"year": 1994,
		"party": "CDU",
		"name": "Vereins- und Westbank AG",
		"street": "Alter Wall 22",
		"plz": "20457",
		"city": "Hamburg",
		"lat": "53.55",
		"lon": "10",
		"val": 11248.38,
		"typ": "jur"
	},
	{
		"year": 1994,
		"party": "CDU",
		"name": "Warrikoff, Alexander",
		"street": "Forstmühlenstraße 23",
		"plz": "64839",
		"city": "Münster",
		"lat": "49.919",
		"lon": "8.8777",
		"val": 10328.06,
		"typ": "nat"
	},
	{
		"year": 1994,
		"party": "CDU",
		"name": "Werhahn, Wilhelm",
		"street": "Königstraße 1",
		"plz": "41460",
		"city": "Neuss",
		"lat": "51.2014",
		"lon": "6.6944",
		"val": 12782.25,
		"typ": "nat"
	},
	{
		"year": 1994,
		"party": "CDU",
		"name": "Weyel, Artur, Dr.",
		"street": "Anrheimer Straße 95",
		"plz": "40489",
		"city": "Düsseldorf",
		"lat": "51.2167",
		"lon": "6.7667",
		"val": 10737.09,
		"typ": "nat"
	},
	{
		"year": 1994,
		"party": "CDU",
		"name": "Wiebe, Herrmann",
		"street": "Bahnhofstraße 45",
		"plz": "27313",
		"city": "Dörverden",
		"lat": "52.8459",
		"lon": "9.2711",
		"val": 16008.49,
		"typ": "nat"
	},
	{
		"year": 1994,
		"party": "CDU",
		"name": "Winko, Dieter",
		"street": "Der Schöne Weg 118",
		"plz": "72766",
		"city": "Reutlingen",
		"lat": "48.511",
		"lon": "9.2232",
		"val": 12782.25,
		"typ": "nat"
	},
	{
		"year": 1994,
		"party": "CDU",
		"name": "Wittgenstein, Casimir, Prinz",
		"street": "Friedrich-Ebert-Anlage 32",
		"plz": "60325",
		"city": "Frankfurt am Main",
		"lat": "50.1136",
		"lon": "8.6578",
		"val": 14316.12,
		"typ": "nat"
	},
	{
		"year": 1994,
		"party": "CDU",
		"name": "Josef Wolf GmbH & Co. KG",
		"street": "Neue Bergstraße 1",
		"plz": "64665",
		"city": "Alsbach-Hähnlein",
		"lat": "49.7386",
		"lon": "8.5958",
		"val": 12270.96,
		"typ": "jur"
	},
	{
		"year": 1994,
		"party": "CDU",
		"name": "Ferrero OHG",
		"street": "Hainer Weg 120",
		"plz": "60599",
		"city": "Frankfurt am Main",
		"lat": "50.0994",
		"lon": "8.7142",
		"val": 76693.5,
		"typ": "jur"
	},
	{
		"year": 1994,
		"party": "CDU",
		"name": "Schreiber, Karlheinz",
		"street": "Raiffeisenstraße 27",
		"plz": "86916",
		"city": "Kaufering",
		"lat": "48.0867",
		"lon": "10.8595",
		"val": 61354.8,
		"typ": "nat"
	},
	{
		"year": 1994,
		"party": "CDU",
		"name": "Zapp, Robert",
		"street": "Goltsteinstraße 28",
		"plz": "40211",
		"city": "Düsseldorf",
		"lat": "51.2278",
		"lon": "6.7861",
		"val": 12782.25,
		"typ": "nat"
	},
	{
		"year": 1994,
		"party": "CSU",
		"name": "Agricola Verwaltungsges. KG",
		"street": "Pacellistraße 4",
		"plz": "80333",
		"city": "München",
		"lat": "48.1452",
		"lon": "11.5668",
		"val": 10992.74,
		"typ": "jur"
	},
	{
		"year": 1994,
		"party": "CSU",
		"name": "Audi AG",
		"street": "Postfach 10 02 20",
		"plz": "85002",
		"city": "Ingolstadt",
		"lat": "48.7667",
		"lon": "11.4147",
		"val": 12782.25,
		"typ": "jur"
	},
	{
		"year": 1994,
		"party": "CSU",
		"name": "Bayerische Bitumen-Chemie Ferdinand Heinrich GmbH",
		"street": "Raiffeisenstraße 27",
		"plz": "86916",
		"city": "Kaufering",
		"lat": "48.0867",
		"lon": "10.8595",
		"val": 21474.18,
		"typ": "jur"
	},
	{
		"year": 1994,
		"party": "CSU",
		"name": "Bayerische Hypotheken und Wechselbank AG",
		"street": "Arabellastraße 12",
		"plz": "81925",
		"city": "München",
		"lat": "48.1642",
		"lon": "11.6218",
		"val": 30677.4,
		"typ": "jur"
	},
	{
		"year": 1994,
		"party": "CSU",
		"name": "BMW Bayerische Motoren Werke AG",
		"street": "Petuelring 130",
		"plz": "80809",
		"city": "München",
		"lat": "48.1787",
		"lon": "11.5617",
		"val": 48623.68,
		"typ": "jur"
	},
	{
		"year": 1994,
		"party": "CSU",
		"name": "Daimler Benz AG",
		"street": "",
		"plz": "70546",
		"city": "Stuttgart",
		"lat": "48.7667",
		"lon": "9.1833",
		"val": 38346.75,
		"typ": "jur"
	},
	{
		"year": 1994,
		"party": "CSU",
		"name": "Derag - Deutsche Realbesitz AG & Co. KG",
		"street": "Fraunhofer Straße 2",
		"plz": "80469",
		"city": "München",
		"lat": "48.1299",
		"lon": "11.5732",
		"val": 15338.7,
		"typ": "jur"
	},
	{
		"year": 1994,
		"party": "CSU",
		"name": "Deutsche Bank AG",
		"street": "Taunusanlage 12",
		"plz": "60325",
		"city": "Frankfurt am Main",
		"lat": "50.1136",
		"lon": "8.6578",
		"val": 51129,
		"typ": "jur"
	},
	{
		"year": 1994,
		"party": "CSU",
		"name": "Duerr & Partner Beteiligungsges. mbH",
		"street": "Brienner Straße 3",
		"plz": "80333",
		"city": "München",
		"lat": "48.1452",
		"lon": "11.5668",
		"val": 25564.5,
		"typ": "jur"
	},
	{
		"year": 1994,
		"party": "CSU",
		"name": "Kneipp-Werke OHG",
		"street": "Steinbachtal 43",
		"plz": "97082",
		"city": "Würzburg",
		"lat": "49.7899",
		"lon": "9.9206",
		"val": 11759.67,
		"typ": "jur"
	},
	{
		"year": 1994,
		"party": "CSU",
		"name": "KG Allgemeine Leasing GmbH & Co.",
		"street": "Tölzer Straße 15",
		"plz": "82031",
		"city": "Grünwald",
		"lat": "48.0483",
		"lon": "11.5317",
		"val": 10992.74,
		"typ": "jur"
	},
	{
		"year": 1994,
		"party": "CSU",
		"name": "Mac Mode GmbH & Co.",
		"street": "Industriestraße 2",
		"plz": "93192",
		"city": "Wald",
		"lat": "49.15",
		"lon": "12.35",
		"val": 18406.44,
		"typ": "jur"
	},
	{
		"year": 1994,
		"party": "CSU",
		"name": "Kurt Nagel GmbH & Co. - Fruchthof Neu-Ulm",
		"street": "Turmstraße 17/19",
		"plz": "89231",
		"city": "Neu-Ulm",
		"lat": "48.4",
		"lon": "10.0167",
		"val": 10276.93,
		"typ": "jur"
	},
	{
		"year": 1994,
		"party": "CSU",
		"name": "Neumeier, Bernhard",
		"street": "Eberer Straße 14a",
		"plz": "84503",
		"city": "Altötting",
		"lat": "48.2262",
		"lon": "12.6586",
		"val": 13877.43,
		"typ": "nat"
	},
	{
		"year": 1994,
		"party": "CSU",
		"name": "Radmer Bau AG",
		"street": "Fürstenrieder Straße 285",
		"plz": "81377",
		"city": "München",
		"lat": "48.1204",
		"lon": "11.5001",
		"val": 14955.23,
		"typ": "jur"
	},
	{
		"year": 1994,
		"party": "CSU",
		"name": "Schmidt-Burkhardt, Henry",
		"street": "An der Schwedenschanze 11",
		"plz": "90455",
		"city": "Nürnberg",
		"lat": "49.4478",
		"lon": "11.0683",
		"val": 15338.7,
		"typ": "nat"
	},
	{
		"year": 1994,
		"party": "CSU",
		"name": "Süd-Chemie AG",
		"street": "Lenbachplatz 6",
		"plz": "80333",
		"city": "München",
		"lat": "48.1452",
		"lon": "11.5668",
		"val": 15338.7,
		"typ": "jur"
	},
	{
		"year": 1994,
		"party": "CSU",
		"name": "Südrohrbau GmbH & Co.",
		"street": "Unterlettenweg 1",
		"plz": "85051",
		"city": "Ingolstadt",
		"lat": "48.7212",
		"lon": "11.4096",
		"val": 20451.6,
		"typ": "jur"
	},
	{
		"year": 1994,
		"party": "CSU",
		"name": "Südzucker AG",
		"street": "Maximillian-Straße 10",
		"plz": "68165",
		"city": "Mannheim",
		"lat": "49.4772",
		"lon": "8.4818",
		"val": 25564.5,
		"typ": "jur"
	},
	{
		"year": 1994,
		"party": "CSU",
		"name": "Thyssen-Henne, Renate",
		"street": "Reuchlinstraße 1",
		"plz": "81925",
		"city": "München",
		"lat": "48.1642",
		"lon": "11.6218",
		"val": 15338.7,
		"typ": "nat"
	},
	{
		"year": 1994,
		"party": "CSU",
		"name": "Tretter-Schuhe - Josef Tretter GmbH & Co. KG",
		"street": "Ridlerstraße 15",
		"plz": "80339",
		"city": "München",
		"lat": "48.1388",
		"lon": "11.5341",
		"val": 12679.99,
		"typ": "jur"
	},
	{
		"year": 1994,
		"party": "CSU",
		"name": "Vielberth, Johann, Dr.",
		"street": "Zeitlbergstraße 15",
		"plz": "93197",
		"city": "Zeitlarn",
		"lat": "49.0833",
		"lon": "12.1",
		"val": 12270.96,
		"typ": "nat"
	},
	{
		"year": 1994,
		"party": "SPD",
		"name": "Aller, Henrich",
		"street": "An der Junkernwiese 25",
		"plz": "30926",
		"city": "Seelze",
		"lat": "52.3863",
		"lon": "9.6204",
		"val": 11325.07,
		"typ": "nat"
	},
	{
		"year": 1994,
		"party": "SPD",
		"name": "Bockolt, Martha",
		"street": "Am Klosterhof 9",
		"plz": "23562",
		"city": "Lübeck",
		"lat": "53.8511",
		"lon": "10.7028",
		"val": 20451.6,
		"typ": "nat"
	},
	{
		"year": 1994,
		"party": "SPD",
		"name": "Brost, Anneliese",
		"street": "Zeißbogen 28",
		"plz": "45133",
		"city": "Essen",
		"lat": "51.4112",
		"lon": "6.9931",
		"val": 12577.73,
		"typ": "nat"
	},
	{
		"year": 1994,
		"party": "SPD",
		"name": "Brost, Erich",
		"street": "Zeißbogen 28",
		"plz": "45133",
		"city": "Essen",
		"lat": "51.4112",
		"lon": "6.9931",
		"val": 10685.96,
		"typ": "nat"
	},
	{
		"year": 1994,
		"party": "SPD",
		"name": "Daimler Benz AG",
		"street": "",
		"plz": "70546",
		"city": "Stuttgart",
		"lat": "48.7667",
		"lon": "9.1833",
		"val": 89475.75,
		"typ": "jur"
	},
	{
		"year": 1994,
		"party": "SPD",
		"name": "Deutsche Bank AG Generalsekretariat",
		"street": "",
		"plz": "60262",
		"city": "Frankfurt am Main",
		"lat": "50.1167",
		"lon": "8.6833",
		"val": 76693.5,
		"typ": "jur"
	},
	{
		"year": 1994,
		"party": "SPD",
		"name": "Diller, Karl",
		"street": "Schulstraße 82",
		"plz": "54411",
		"city": "Deuselbach",
		"lat": "49.75",
		"lon": "7.05",
		"val": 11890.05,
		"typ": "nat"
	},
	{
		"year": 1994,
		"party": "SPD",
		"name": "Dobberthien, Marliese",
		"street": "Max-Brauer-Allee 20",
		"plz": "22765",
		"city": "Hamburg",
		"lat": "53.5528",
		"lon": "9.9361",
		"val": 10276.93,
		"typ": "nat"
	},
	{
		"year": 1994,
		"party": "SPD",
		"name": "Eich, Ludwig",
		"street": "Hauptstraße 106",
		"plz": "53567",
		"city": "Buchholz (Westerwald)",
		"lat": "50.6833",
		"lon": "7.3833",
		"val": 10685.96,
		"typ": "nat"
	},
	{
		"year": 1994,
		"party": "SPD",
		"name": "Faße, Anette",
		"street": "Barwarder Weg 2",
		"plz": "27607",
		"city": "Langen",
		"lat": "53.6167",
		"lon": "8.6",
		"val": 10302.49,
		"typ": "nat"
	},
	{
		"year": 1994,
		"party": "SPD",
		"name": "Peter Groß GmbH",
		"street": "Dudweilerstraße 80",
		"plz": "66386",
		"city": "Sankt Ingbert",
		"lat": "49.2833",
		"lon": "7.1167",
		"val": 12782.25,
		"typ": "jur"
	},
	{
		"year": 1994,
		"party": "SPD",
		"name": "Haas, Hans-Peter",
		"street": "Wintersbergstraße 5",
		"plz": "56130",
		"city": "Bad Ems",
		"lat": "50.3413",
		"lon": "7.7145",
		"val": 11043.86,
		"typ": "nat"
	},
	{
		"year": 1994,
		"party": "SPD",
		"name": "Harms, Friedrich",
		"street": "Kirschengarten 39",
		"plz": "32052",
		"city": "Herford",
		"lat": "52.1005",
		"lon": "8.6723",
		"val": 17895.15,
		"typ": "nat"
	},
	{
		"year": 1994,
		"party": "SPD",
		"name": "Iwersen, Gabriele",
		"street": "Rathausplatz 8a",
		"plz": "26382",
		"city": "Wilhelmshaven",
		"lat": "53.5234",
		"lon": "8.1075",
		"val": 13319.1,
		"typ": "nat"
	},
	{
		"year": 1994,
		"party": "SPD",
		"name": "Jähnke, Carmen",
		"street": "Schmelzhüttenstraße 29",
		"plz": "07545",
		"city": "Gera",
		"lat": "50.8782",
		"lon": "12.0824",
		"val": 15094.55,
		"typ": "nat"
	},
	{
		"year": 1994,
		"party": "SPD",
		"name": "Joos, Helmut",
		"street": "Hainer Weg 50",
		"plz": "60599",
		"city": "Frankfurt am Main",
		"lat": "50.0994",
		"lon": "8.7142",
		"val": 12782.25,
		"typ": "nat"
	},
	{
		"year": 1994,
		"party": "SPD",
		"name": "Kramer Druck und Verlags GmbH",
		"street": "Otto-Brenner-Straße 209",
		"plz": "33604",
		"city": "Bielefeld",
		"lat": "52.0106",
		"lon": "8.5493",
		"val": 10760.61,
		"typ": "jur"
	},
	{
		"year": 1994,
		"party": "SPD",
		"name": "Krawinkel, Christian",
		"street": "Edelsbergstraße 6",
		"plz": "80686",
		"city": "München",
		"lat": "48.138",
		"lon": "11.507",
		"val": 51129,
		"typ": "nat"
	},
	{
		"year": 1994,
		"party": "SPD",
		"name": "Kubera Industriebau",
		"street": "Carl-Zeiss-Straße 28",
		"plz": "31137",
		"city": "Hildesheim",
		"lat": "52.1603",
		"lon": "9.9331",
		"val": 15338.7,
		"typ": "jur"
	},
	{
		"year": 1994,
		"party": "SPD",
		"name": "Kuebler, Klaus Heidrun, Dr. und Dr.",
		"street": "Heidelberger Straße 42a",
		"plz": "64625",
		"city": "Bensheim",
		"lat": "49.6867",
		"lon": "8.6284",
		"val": 18109.89,
		"typ": "nat"
	},
	{
		"year": 1994,
		"party": "SPD",
		"name": "Maget, Franz, MdL",
		"street": "Franz-Fackler-Straße 39",
		"plz": "80995",
		"city": "München",
		"lat": "48.1976",
		"lon": "11.5181",
		"val": 17864.34,
		"typ": "nat"
	},
	{
		"year": 1994,
		"party": "SPD",
		"name": "Verband der Metall- und Elektroindustrie Nordrhein-Westfalen e.V.",
		"street": "Uerdinger Straße 58-62",
		"plz": "40474",
		"city": "Düsseldorf",
		"lat": "51.2696",
		"lon": "6.748",
		"val": 38346.75,
		"typ": "jur"
	},
	{
		"year": 1994,
		"party": "SPD",
		"name": "Muggendorfer, Werner",
		"street": "Platanenallee 46",
		"plz": "93333",
		"city": "Neustadt an der Donau",
		"lat": "48.8091",
		"lon": "11.7619",
		"val": 10678.11,
		"typ": "nat"
	},
	{
		"year": 1994,
		"party": "SPD",
		"name": "Einrichtungshaus Ostermann",
		"street": "Annenstraße 120",
		"plz": "58453",
		"city": "Witten",
		"lat": "51.4434",
		"lon": "7.3633",
		"val": 12781.53,
		"typ": "jur"
	},
	{
		"year": 1994,
		"party": "SPD",
		"name": "Querengässer, Andreas",
		"street": "Nr. 142",
		"plz": "07407",
		"city": "Rudolstadt",
		"lat": "50.713",
		"lon": "11.3186",
		"val": 11166.55,
		"typ": "nat"
	},
	{
		"year": 1994,
		"party": "SPD",
		"name": "Reuter, Bernd",
		"street": "Römerstraße 10",
		"plz": "61130",
		"city": "Nidderau",
		"lat": "50.25",
		"lon": "8.9",
		"val": 11297.35,
		"typ": "nat"
	},
	{
		"year": 1994,
		"party": "SPD",
		"name": "Steiger, Christa, MdL",
		"street": "Am Steig 92",
		"plz": "96364",
		"city": "Marktrodach",
		"lat": "50.244",
		"lon": "11.4138",
		"val": 12990.55,
		"typ": "nat"
	},
	{
		"year": 1994,
		"party": "SPD",
		"name": "Strate Privatbrauerei",
		"street": "Palaisstraße 1-13",
		"plz": "32756",
		"city": "Detmold",
		"lat": "51.936",
		"lon": "8.8783",
		"val": 12782.25,
		"typ": "jur"
	},
	{
		"year": 1994,
		"party": "SPD",
		"name": "TREUWA",
		"street": "Kleiststraße 3",
		"plz": "10787",
		"city": "Berlin",
		"lat": "52.5167",
		"lon": "13.4",
		"val": 12782.25,
		"typ": "jur"
	},
	{
		"year": 1994,
		"party": "SPD",
		"name": "Peter Waldvogel (Fa.)",
		"street": "Zschopauer Straße 54",
		"plz": "09111",
		"city": "Chemnitz",
		"lat": "50.8351",
		"lon": "12.9222",
		"val": 13187.7,
		"typ": "jur"
	},
	{
		"year": 1994,
		"party": "SPD",
		"name": "Walter, Ralf",
		"street": "Bergstraße 13",
		"plz": "56812",
		"city": "Cochem",
		"lat": "50.1431",
		"lon": "7.1789",
		"val": 12245.95,
		"typ": "nat"
	},
	{
		"year": 1994,
		"party": "SPD",
		"name": "Wiegandt, Klaus",
		"street": "Am Alten Berg 25",
		"plz": "64342",
		"city": "Seeheim-Jugenheim",
		"lat": "49.765",
		"lon": "8.6519",
		"val": 19173.38,
		"typ": "nat"
	},
	{
		"year": 1994,
		"party": "PDS",
		"name": "Engelmann, Dagmar, Dr.",
		"street": "Paul-Singer-Straße 20",
		"plz": "16321",
		"city": "Bernau",
		"lat": "52.6821",
		"lon": "13.5965",
		"val": 11263.21,
		"typ": "nat"
	},
	{
		"year": 1994,
		"party": "PDS",
		"name": "Fuchs, Ruth",
		"street": "Werner-Seelenbinder-Straße 20",
		"plz": "07747",
		"city": "Jena",
		"lat": "50.8899",
		"lon": "11.6086",
		"val": 10480.42,
		"typ": "nat"
	},
	{
		"year": 1994,
		"party": "PDS",
		"name": "Gysi, Gregor, Dr.",
		"street": "Immanuelkirchstraße 2",
		"plz": "10405",
		"city": "Berlin",
		"lat": "52.539",
		"lon": "13.424",
		"val": 11938.62,
		"typ": "nat"
	},
	{
		"year": 1994,
		"party": "PDS",
		"name": "Hegner, Edith",
		"street": "Teltower Damm 55",
		"plz": "14167",
		"city": "Berlin",
		"lat": "52.5167",
		"lon": "13.4",
		"val": 10737.09,
		"typ": "nat"
	},
	{
		"year": 1994,
		"party": "PDS",
		"name": "Lederer, Andrea",
		"street": "Immanuelkirchstraße 2",
		"plz": "10405",
		"city": "Berlin",
		"lat": "52.539",
		"lon": "13.424",
		"val": 14290.56,
		"typ": "nat"
	},
	{
		"year": 1994,
		"party": "PDS",
		"name": "Modrow, Hans, Dr.",
		"street": "Frankfurter Tor 6",
		"plz": "10243",
		"city": "Berlin Friedrichshain",
		"lat": "52.5056",
		"lon": "13.4487",
		"val": 10241.14,
		"typ": "nat"
	},
	{
		"year": 1994,
		"party": "GRÜNE",
		"name": "Baumann, Uwe",
		"street": "Fuchsweg 14",
		"plz": "48147",
		"city": "Münster",
		"lat": "51.9858",
		"lon": "7.648",
		"val": 13414.18,
		"typ": "nat"
	},
	{
		"year": 1994,
		"party": "GRÜNE",
		"name": "Bögner, Anna",
		"street": "Johannesstraße 83",
		"plz": "41061",
		"city": "Mönchengladbach",
		"lat": "51.1958",
		"lon": "6.4387",
		"val": 13848.29,
		"typ": "nat"
	},
	{
		"year": 1994,
		"party": "GRÜNE",
		"name": "Bruns, Anna",
		"street": "Kurt Küchler-Straße 41",
		"plz": "22609",
		"city": "Hamburg",
		"lat": "53.5701",
		"lon": "9.8654",
		"val": 20022.12,
		"typ": "nat"
	},
	{
		"year": 1994,
		"party": "GRÜNE",
		"name": "Busch, Manfred",
		"street": "Neckarstraße 14",
		"plz": "40219",
		"city": "Düsseldorf",
		"lat": "51.2125",
		"lon": "6.7637",
		"val": 13007.22,
		"typ": "nat"
	},
	{
		"year": 1994,
		"party": "GRÜNE",
		"name": "Dörr, Harald",
		"street": "Ostring 83",
		"plz": "67105",
		"city": "Schifferstadt",
		"lat": "49.3784",
		"lon": "8.3658",
		"val": 12884.51,
		"typ": "nat"
	},
	{
		"year": 1994,
		"party": "GRÜNE",
		"name": "Fleischer, Manfred, Dr.",
		"street": "Kuglerstraße 15",
		"plz": "81675",
		"city": "München",
		"lat": "48.1352",
		"lon": "11.6039",
		"val": 14004.23,
		"typ": "nat"
	},
	{
		"year": 1994,
		"party": "GRÜNE",
		"name": "Fritsche, Erika",
		"street": "Am Oberen Forst 29",
		"plz": "56379",
		"city": "Winden",
		"lat": "50.3333",
		"lon": "7.8333",
		"val": 12568.43,
		"typ": "nat"
	},
	{
		"year": 1994,
		"party": "GRÜNE",
		"name": "Gaber, Klaus",
		"street": "Wolfshügelstraße 7",
		"plz": "01324",
		"city": "Dresden",
		"lat": "51.05",
		"lon": "13.75",
		"val": 13089.02,
		"typ": "nat"
	},
	{
		"year": 1994,
		"party": "GRÜNE",
		"name": "Grüber, Katrin",
		"street": "Kastanienstraße 9",
		"plz": "40699",
		"city": "Erkrath",
		"lat": "51.2132",
		"lon": "6.929",
		"val": 10278.46,
		"typ": "nat"
	},
	{
		"year": 1994,
		"party": "GRÜNE",
		"name": "Grützmacher, Friedel",
		"street": "Lortzingstraße 10g",
		"plz": "76744",
		"city": "Wörth am Rhein",
		"lat": "49.0479",
		"lon": "8.2714",
		"val": 24961.18,
		"typ": "nat"
	},
	{
		"year": 1994,
		"party": "GRÜNE",
		"name": "Hageman, Karin",
		"street": "Kropbacher Weg 20",
		"plz": "35398",
		"city": "Gießen",
		"lat": "50.5833",
		"lon": "8.65",
		"val": 11498.91,
		"typ": "nat"
	},
	{
		"year": 1994,
		"party": "GRÜNE",
		"name": "Hertle, Fritz",
		"street": "Im Wiesengrund 2a",
		"plz": "36039",
		"city": "Fulda",
		"lat": "50.5732",
		"lon": "9.6824",
		"val": 10430.32,
		"typ": "nat"
	},
	{
		"year": 1994,
		"party": "GRÜNE",
		"name": "Hoops, Andrea",
		"street": "Westenholz 179",
		"plz": "29664",
		"city": "Walsrode",
		"lat": "52.8592",
		"lon": "9.5853",
		"val": 10956.94,
		"typ": "nat"
	},
	{
		"year": 1994,
		"party": "GRÜNE",
		"name": "Hürten, Marianne",
		"street": "Augustastraße 8",
		"plz": "51065",
		"city": "Köln",
		"lat": "50.9578",
		"lon": "7.0056",
		"val": 14571.76,
		"typ": "nat"
	},
	{
		"year": 1994,
		"party": "GRÜNE",
		"name": "Idelberger, Horst, Prof. Dr.",
		"street": "Paulinenstraße 20",
		"plz": "32427",
		"city": "Minden",
		"lat": "52.2946",
		"lon": "8.8976",
		"val": 11029.77,
		"typ": "nat"
	},
	{
		"year": 1994,
		"party": "GRÜNE",
		"name": "Jensen, Jörg",
		"street": "Ringstraße 83",
		"plz": "12203",
		"city": "Berlin",
		"lat": "52.5167",
		"lon": "13.4",
		"val": 15952.25,
		"typ": "nat"
	},
	{
		"year": 1994,
		"party": "GRÜNE",
		"name": "Jordan, Dirk",
		"street": "Fontanepromenade 9",
		"plz": "10967",
		"city": "Berlin Kreuzberg",
		"lat": "52.4921",
		"lon": "13.4137",
		"val": 18651.86,
		"typ": "nat"
	},
	{
		"year": 1994,
		"party": "GRÜNE",
		"name": "Kirschner, Ulrike",
		"street": "Henriette-Herz-Garten 12",
		"plz": "21035",
		"city": "Hamburg",
		"lat": "53.55",
		"lon": "10",
		"val": 11726.95,
		"typ": "nat"
	},
	{
		"year": 1994,
		"party": "GRÜNE",
		"name": "Kreutz, Daniel",
		"street": "Brüsseler Straße 35",
		"plz": "50674",
		"city": "Köln",
		"lat": "50.9325",
		"lon": "6.941",
		"val": 12884.51,
		"typ": "nat"
	},
	{
		"year": 1994,
		"party": "GRÜNE",
		"name": "Lorenz, Joachim",
		"street": "Jollystraße 8a",
		"plz": "81545",
		"city": "München",
		"lat": "48.0827",
		"lon": "11.5619",
		"val": 12424.35,
		"typ": "nat"
	},
	{
		"year": 1994,
		"party": "GRÜNE",
		"name": "Lostermann-de Nil, Anette",
		"street": "Friedrichstraße 69",
		"plz": "45468",
		"city": "Mülheim an der Ruhr",
		"lat": "51.4268",
		"lon": "6.8806",
		"val": 12481.1,
		"typ": "nat"
	},
	{
		"year": 1994,
		"party": "GRÜNE",
		"name": "Mai, Gerd",
		"street": "Anton-Schürkes-Straße 2",
		"plz": "52525",
		"city": "Heinsberg",
		"lat": "51.0663",
		"lon": "6.1055",
		"val": 12424.35,
		"typ": "nat"
	},
	{
		"year": 1994,
		"party": "GRÜNE",
		"name": "Müller, Eckehard",
		"street": "Zollernstraße 10",
		"plz": "59269",
		"city": "Beckum",
		"lat": "51.7564",
		"lon": "8.0178",
		"val": 10252.39,
		"typ": "nat"
	},
	{
		"year": 1994,
		"party": "GRÜNE",
		"name": "Müller, Sebastian",
		"street": "Kaiserstraße 69",
		"plz": "44135",
		"city": "Dortmund",
		"lat": "51.5125",
		"lon": "7.477",
		"val": 18414.11,
		"typ": "nat"
	},
	{
		"year": 1994,
		"party": "GRÜNE",
		"name": "Nacken, Gisela",
		"street": "Preussweg 3",
		"plz": "52074",
		"city": "Aachen",
		"lat": "50.7479",
		"lon": "6.0485",
		"val": 12015.32,
		"typ": "nat"
	},
	{
		"year": 1994,
		"party": "GRÜNE",
		"name": "Neuenfeld, Klaus",
		"street": "Cranachstraße 11",
		"plz": "99423",
		"city": "Weimar",
		"lat": "50.9804",
		"lon": "11.3263",
		"val": 54221.49,
		"typ": "nat"
	},
	{
		"year": 1994,
		"party": "GRÜNE",
		"name": "Quick, Hans-Christoph",
		"street": "Am Graben 73",
		"plz": "47929",
		"city": "Grefrath",
		"lat": "51.3451",
		"lon": "6.35",
		"val": 12391.62,
		"typ": "nat"
	},
	{
		"year": 1994,
		"party": "GRÜNE",
		"name": "Rieger, Sophie",
		"street": "Grünthersbühler Straße 38",
		"plz": "90491",
		"city": "Nürnberg",
		"lat": "49.4741",
		"lon": "11.1296",
		"val": 12424.35,
		"typ": "nat"
	},
	{
		"year": 1994,
		"party": "GRÜNE",
		"name": "Riepe, Klaus",
		"street": "Brüderstraße 21",
		"plz": "58452",
		"city": "Witten",
		"lat": "51.4315",
		"lon": "7.334",
		"val": 15461.41,
		"typ": "nat"
	},
	{
		"year": 1994,
		"party": "GRÜNE",
		"name": "Ritter, Sabine",
		"street": "Crellestraße 19/20",
		"plz": "10827",
		"city": "Berlin",
		"lat": "52.4853",
		"lon": "13.355",
		"val": 12902.4,
		"typ": "nat"
	},
	{
		"year": 1994,
		"party": "GRÜNE",
		"name": "Romber, Erika",
		"street": "Skalitzer Straße 43",
		"plz": "10997",
		"city": "Berlin Kreuzberg",
		"lat": "52.5001",
		"lon": "13.4369",
		"val": 21351.47,
		"typ": "nat"
	},
	{
		"year": 1994,
		"party": "GRÜNE",
		"name": "Rösler, Wolf-Dieter",
		"street": "Biehlweg 5",
		"plz": "22049",
		"city": "Hamburg",
		"lat": "53.5808",
		"lon": "10.0594",
		"val": 10904.79,
		"typ": "nat"
	},
	{
		"year": 1994,
		"party": "GRÜNE",
		"name": "Sager, Krista",
		"street": "Winzerstraße 1",
		"plz": "53129",
		"city": "Bonn",
		"lat": "50.7207",
		"lon": "7.107",
		"val": 35790.3,
		"typ": "nat"
	},
	{
		"year": 1994,
		"party": "GRÜNE",
		"name": "Schoppe, Waltraud",
		"street": "Albringhausen 44",
		"plz": "27211",
		"city": "Bassum",
		"lat": "52.8749",
		"lon": "8.7416",
		"val": 17302.05,
		"typ": "nat"
	},
	{
		"year": 1994,
		"party": "GRÜNE",
		"name": "Schumann, Brigitte",
		"street": "Rüttenscheider Straße 18",
		"plz": "45128",
		"city": "Essen",
		"lat": "51.4457",
		"lon": "7.0103",
		"val": 19441.8,
		"typ": "nat"
	},
	{
		"year": 1994,
		"party": "GRÜNE",
		"name": "Schwarz, Antonia",
		"street": "Südenstraße 12",
		"plz": "12169",
		"city": "Berlin",
		"lat": "52.4584",
		"lon": "13.3367",
		"val": 19807.37,
		"typ": "nat"
	},
	{
		"year": 1994,
		"party": "GRÜNE",
		"name": "Schwarzenau, Anette",
		"street": "Grunewaldstraße 56",
		"plz": "10825",
		"city": "Berlin",
		"lat": "52.4889",
		"lon": "13.3438",
		"val": 16074.96,
		"typ": "nat"
	},
	{
		"year": 1994,
		"party": "GRÜNE",
		"name": "Schweiger, Georg",
		"street": "Hochriesstraße 4",
		"plz": "85598",
		"city": "Baldham",
		"lat": "48.1167",
		"lon": "11.7833",
		"val": 10690.32,
		"typ": "nat"
	},
	{
		"year": 1994,
		"party": "GRÜNE",
		"name": "Seip, Senta",
		"street": "Am Rosenhang 4",
		"plz": "65549",
		"city": "Limburg an der Lahn",
		"lat": "50.383",
		"lon": "8.0611",
		"val": 12934.85,
		"typ": "nat"
	},
	{
		"year": 1994,
		"party": "GRÜNE",
		"name": "Trittin, Jürgen",
		"street": "Wedekindstraße 33",
		"plz": "30161",
		"city": "Hannover",
		"lat": "52.3874",
		"lon": "9.7465",
		"val": 10665.51,
		"typ": "nat"
	},
	{
		"year": 1994,
		"party": "GRÜNE",
		"name": "Ullrich, Barbara",
		"street": "Emilienstraße 55",
		"plz": "45128",
		"city": "Essen",
		"lat": "51.4457",
		"lon": "7.0103",
		"val": 11310.76,
		"typ": "nat"
	},
	{
		"year": 1994,
		"party": "GRÜNE",
		"name": "Volkholz, Sybille",
		"street": "Melanchthonstraße 19",
		"plz": "10557",
		"city": "Berlin",
		"lat": "52.5268",
		"lon": "13.3605",
		"val": 12516.38,
		"typ": "nat"
	},
	{
		"year": 1994,
		"party": "GRÜNE",
		"name": "Welsch, Georg",
		"street": "Konradstraße 5",
		"plz": "80801",
		"city": "München",
		"lat": "48.15",
		"lon": "11.5833",
		"val": 13140.15,
		"typ": "nat"
	},
	{
		"year": 1994,
		"party": "GRÜNE",
		"name": "Wendt, Michael",
		"street": "Lilienthalstraße 20",
		"plz": "10965",
		"city": "Berlin Kreuzberg",
		"lat": "52.4887",
		"lon": "13.3781",
		"val": 28708.93,
		"typ": "nat"
	},
	{
		"year": 1994,
		"party": "FDP",
		"name": "Beatrice (Deutschland) GmbH",
		"street": "Abtsbrede 129",
		"plz": "33098",
		"city": "Paderborn",
		"lat": "51.7136",
		"lon": "8.7554",
		"val": 40903.2,
		"typ": "jur"
	},
	{
		"year": 1994,
		"party": "FDP",
		"name": "Bertelsmann AG",
		"street": "Postfach 1 11",
		"plz": "33110",
		"city": "Gütersloh",
		"lat": "51.9",
		"lon": "8.384",
		"val": 15338.7,
		"typ": "jur"
	},
	{
		"year": 1994,
		"party": "FDP",
		"name": "Bubis, Ignatz",
		"street": "Schumannstraße 65",
		"plz": "60325",
		"city": "Frankfurt am Main",
		"lat": "50.1136",
		"lon": "8.6578",
		"val": 25564.5,
		"typ": "nat"
	},
	{
		"year": 1994,
		"party": "FDP",
		"name": "Büll & Liedtke Projekt Entwicklung GmbH",
		"street": "Kajen 12",
		"plz": "20459",
		"city": "Hamburg",
		"lat": "53.5502",
		"lon": "9.9841",
		"val": 12782.25,
		"typ": "jur"
	},
	{
		"year": 1994,
		"party": "FDP",
		"name": "Central Krankenversicherung",
		"street": "Hansaring 40",
		"plz": "50670",
		"city": "Köln",
		"lat": "50.9525",
		"lon": "6.9571",
		"val": 15338.7,
		"typ": "jur"
	},
	{
		"year": 1994,
		"party": "FDP",
		"name": "Daimler Benz AG",
		"street": "Postfach 60 02 02",
		"plz": "70302",
		"city": "Stuttgart",
		"lat": "48.7667",
		"lon": "9.1833",
		"val": 38346.75,
		"typ": "jur"
	},
	{
		"year": 1994,
		"party": "FDP",
		"name": "Deutsche Bank AG",
		"street": "Postfach",
		"plz": "60001",
		"city": "Frankfurt am Main",
		"lat": "50.1167",
		"lon": "8.6833",
		"val": 66467.7,
		"typ": "jur"
	},
	{
		"year": 1994,
		"party": "FDP",
		"name": "GEMINI-AREA GmbH",
		"street": "Schloß Allner",
		"plz": "53773",
		"city": "Hennef",
		"lat": "50.7699",
		"lon": "7.2914",
		"val": 15338.7,
		"typ": "jur"
	},
	{
		"year": 1994,
		"party": "FDP",
		"name": "Groth, Klaus",
		"street": "Kurfürstendamm 62",
		"plz": "10707",
		"city": "Berlin",
		"lat": "52.5167",
		"lon": "13.4",
		"val": 11248.38,
		"typ": "nat"
	},
	{
		"year": 1994,
		"party": "FDP",
		"name": "Heinemann, Heike",
		"street": "Am Sportfeld 4a",
		"plz": "61476",
		"city": "Kronberg im Taunus",
		"lat": "50.1789",
		"lon": "8.5134",
		"val": 51129,
		"typ": "nat"
	},
	{
		"year": 1994,
		"party": "FDP",
		"name": "Hörr, Hermann Robert",
		"street": "Fahrlachsstraße 14a",
		"plz": "68165",
		"city": "Mannheim",
		"lat": "49.4772",
		"lon": "8.4818",
		"val": 16268.53,
		"typ": "nat"
	},
	{
		"year": 1994,
		"party": "FDP",
		"name": "Jordan, Jens",
		"street": "Am Iländ 7",
		"plz": "45731",
		"city": "Waltrop",
		"lat": "51.6165",
		"lon": "7.3853",
		"val": 11803.13,
		"typ": "nat"
	},
	{
		"year": 1994,
		"party": "FDP",
		"name": "Kolb, Heinrich Leonhard",
		"street": "Ziegelhüttenstraße 43",
		"plz": "64832",
		"city": "Babenhausen",
		"lat": "49.9608",
		"lon": "8.9522",
		"val": 11876.8,
		"typ": "nat"
	},
	{
		"year": 1994,
		"party": "FDP",
		"name": "Lambsdorff, Otto, Graf",
		"street": "Bundeshaus",
		"plz": "53113",
		"city": "Bonn",
		"lat": "50.7231",
		"lon": "7.1068",
		"val": 11606.28,
		"typ": "nat"
	},
	{
		"year": 1994,
		"party": "FDP",
		"name": "Mayer, Karl",
		"street": "Petersweg 8",
		"plz": "63179",
		"city": "Obertshausen",
		"lat": "50.0697",
		"lon": "8.844",
		"val": 11504.02,
		"typ": "nat"
	},
	{
		"year": 1994,
		"party": "FDP",
		"name": "Papenburg GmbH",
		"street": "Postfach 11 55",
		"plz": "29690",
		"city": "Schwarmstedt",
		"lat": "52.68",
		"lon": "9.6254",
		"val": 15338.7,
		"typ": "jur"
	},
	{
		"year": 1994,
		"party": "FDP",
		"name": "Reinhardt, Volker",
		"street": "Berenbosteler Straße 77",
		"plz": "30823",
		"city": "Garbsen",
		"lat": "52.4182",
		"lon": "9.6021",
		"val": 15338.7,
		"typ": "nat"
	},
	{
		"year": 1994,
		"party": "FDP",
		"name": "Schnittler, Christoph",
		"street": "Schleusinger Straße 168",
		"plz": "98714",
		"city": "Stützerbach",
		"lat": "50.6333",
		"lon": "10.8667",
		"val": 11148.45,
		"typ": "nat"
	},
	{
		"year": 1994,
		"party": "FDP",
		"name": "Südzucker AG",
		"street": "Postfach 10 28 55",
		"plz": "68028",
		"city": "Mannheim",
		"lat": "49.4934",
		"lon": "8.4653",
		"val": 15338.7,
		"typ": "jur"
	},
	{
		"year": 1994,
		"party": "FDP",
		"name": "Verband der Metallindustrie e.V.",
		"street": "Uerdinger Straße 58-62",
		"plz": "40474",
		"city": "Düsseldorf",
		"lat": "51.2696",
		"lon": "6.748",
		"val": 52662.87,
		"typ": "jur"
	},
	{
		"year": 1995,
		"party": "CDU",
		"name": "Allianz Versicherungen AG",
		"street": "Königinstraße 28",
		"plz": "80802",
		"city": "München",
		"lat": "48.1665",
		"lon": "11.5903",
		"val": 12782.25,
		"typ": "jur"
	},
	{
		"year": 1995,
		"party": "CDU",
		"name": "Altana AG",
		"street": "Seedammweg 5",
		"plz": "61350",
		"city": "Bad Homburg vor der Höhe",
		"lat": "50.2377",
		"lon": "8.6024",
		"val": 20451.6,
		"typ": "jur"
	},
	{
		"year": 1995,
		"party": "CDU",
		"name": "Ammerschlaeger, Alois",
		"street": "Zeil 72-82",
		"plz": "60313",
		"city": "Frankfurt am Main",
		"lat": "50.1157",
		"lon": "8.6799",
		"val": 34767.72,
		"typ": "nat"
	},
	{
		"year": 1995,
		"party": "CDU",
		"name": "Arbeitgeberverband der Metall- und Elektroindustrie Lüdenscheid e.V.",
		"street": "Staberger Straße 5",
		"plz": "58511",
		"city": "Lüdenscheid",
		"lat": "51.2169",
		"lon": "7.6457",
		"val": 20707.24,
		"typ": "jur"
	},
	{
		"year": 1995,
		"party": "CDU",
		"name": "Arbeitgeberverband der hessischen Metallindustrie Bezirksgruppe Nordhessen e.V.",
		"street": "Karthäuser Straße 23",
		"plz": "34117",
		"city": "Kassel",
		"lat": "51.3166",
		"lon": "9.4912",
		"val": 11930.1,
		"typ": "jur"
	},
	{
		"year": 1995,
		"party": "CDU",
		"name": "Asea Brown Bovert AG",
		"street": "Gottlieb-Daimler-Straße 8",
		"plz": "68165",
		"city": "Mannheim",
		"lat": "49.4772",
		"lon": "8.4818",
		"val": 15338.7,
		"typ": "jur"
	},
	{
		"year": 1995,
		"party": "CDU",
		"name": "Bauaktiengesellschaft Bilfinger + Berger",
		"street": "Lyoner Straße 38a",
		"plz": "60528",
		"city": "Frankfurt am Main",
		"lat": "50.0773",
		"lon": "8.6143",
		"val": 17895.15,
		"typ": "jur"
	},
	{
		"year": 1995,
		"party": "CDU",
		"name": "Blankenhagen, Gerhard",
		"street": "W.-Heisenberg-Straße 13",
		"plz": "63263",
		"city": "Neu-Isenburg",
		"lat": "50.05",
		"lon": "8.7",
		"val": 12782.25,
		"typ": "nat"
	},
	{
		"year": 1995,
		"party": "CDU",
		"name": "Blens, Herbert, MdB",
		"street": "Schluchter Heide 5",
		"plz": "51069",
		"city": "Köln",
		"lat": "50.9333",
		"lon": "6.95",
		"val": 10409.86,
		"typ": "nat"
	},
	{
		"year": 1995,
		"party": "CDU",
		"name": "Bundesverband der deutschen Volks- und Raiffeisenbanken e.V.",
		"street": "Heussallee 5",
		"plz": "53113",
		"city": "Bonn",
		"lat": "50.7231",
		"lon": "7.1068",
		"val": 12782.25,
		"typ": "jur"
	},
	{
		"year": 1995,
		"party": "CDU",
		"name": "Bundesverband der Pharmazeutischen Industrie e.V.",
		"street": "Karlstraße 19-21",
		"plz": "60329",
		"city": "Frankfurt am Main",
		"lat": "50.106",
		"lon": "8.6627",
		"val": 10737.09,
		"typ": "jur"
	},
	{
		"year": 1995,
		"party": "CDU",
		"name": "Bundesverband deutscher Vermögensberater e.V.",
		"street": "Gottfried-Keller-Straße 14",
		"plz": "35039",
		"city": "Marburg",
		"lat": "50.8098",
		"lon": "8.7773",
		"val": 25564.5,
		"typ": "jur"
	},
	{
		"year": 1995,
		"party": "CDU",
		"name": "Burda Holding GmbH & Co. KG",
		"street": "Hauptstraße 130",
		"plz": "77601",
		"city": "Offenburg",
		"lat": "48.4765",
		"lon": "7.9438",
		"val": 12782.25,
		"typ": "jur"
	},
	{
		"year": 1995,
		"party": "CDU",
		"name": "Burmeister, Hilmar",
		"street": "Dalldorf Nr. 1",
		"plz": "29562",
		"city": "Suhlendorf",
		"lat": "52.9333",
		"lon": "10.7667",
		"val": 11504.02,
		"typ": "nat"
	},
	{
		"year": 1995,
		"party": "CDU",
		"name": "Consumer Electronic GmbH",
		"street": "Ungererstraße 129",
		"plz": "80805",
		"city": "München",
		"lat": "48.1725",
		"lon": "11.5964",
		"val": 25564.5,
		"typ": "jur"
	},
	{
		"year": 1995,
		"party": "CDU",
		"name": "Daimler Benz AG",
		"street": "Mercedesstraße 136",
		"plz": "70327",
		"city": "Stuttgart",
		"lat": "48.7667",
		"lon": "9.1833",
		"val": 115040.25,
		"typ": "jur"
	},
	{
		"year": 1995,
		"party": "CDU",
		"name": "Derby Cycle Werke GmbH",
		"street": "Siemensstraße 1-3",
		"plz": "49661",
		"city": "Cloppenburg",
		"lat": "52.8475",
		"lon": "8.0463",
		"val": 12270.96,
		"typ": "jur"
	},
	{
		"year": 1995,
		"party": "CDU",
		"name": "DeTeWe, Geschäftsstelle Sachsen-Anhalt",
		"street": "Rogatzer Straße 8",
		"plz": "39106",
		"city": "Magdeburg",
		"lat": "52.1469",
		"lon": "11.6498",
		"val": 48572.55,
		"typ": "jur"
	},
	{
		"year": 1995,
		"party": "CDU",
		"name": "Deutsche Babcock AG",
		"street": "Duisburger Straße 375",
		"plz": "46049",
		"city": "Oberhausen",
		"lat": "51.4773",
		"lon": "6.8413",
		"val": 14316.12,
		"typ": "jur"
	},
	{
		"year": 1995,
		"party": "CDU",
		"name": "Deutsche Bank AG",
		"street": "Taunusanlage 12",
		"plz": "60325",
		"city": "Frankfurt am Main",
		"lat": "50.1136",
		"lon": "8.6578",
		"val": 219854.7,
		"typ": "jur"
	},
	{
		"year": 1995,
		"party": "CDU",
		"name": "Dietrich, Frank",
		"street": "Dorfstraße 64",
		"plz": "03172",
		"city": "Guben",
		"lat": "51.9537",
		"lon": "14.6757",
		"val": 19813.05,
		"typ": "nat"
	},
	{
		"year": 1995,
		"party": "CDU",
		"name": "EC Spezialmaschinen GmbH",
		"street": "Hans-Lorenser-Straße 26",
		"plz": "89079",
		"city": "Ulm",
		"lat": "48.3568",
		"lon": "9.9601",
		"val": 15338.7,
		"typ": "jur"
	},
	{
		"year": 1995,
		"party": "CDU",
		"name": "GAP Consulting",
		"street": "Bismarckstraße 32",
		"plz": "58300",
		"city": "Wetter (Ruhr)",
		"lat": "51.3919",
		"lon": "7.3778",
		"val": 10289.71,
		"typ": "jur"
	},
	{
		"year": 1995,
		"party": "CDU",
		"name": "Groenke, Klaus",
		"street": "Miquelstraße 84",
		"plz": "14195",
		"city": "Berlin",
		"lat": "52.5167",
		"lon": "13.4",
		"val": 12782.25,
		"typ": "nat"
	},
	{
		"year": 1995,
		"party": "CDU",
		"name": "Groth, Klaus",
		"street": "Kurfürstendamm 207-208",
		"plz": "10719",
		"city": "Berlin",
		"lat": "52.5033",
		"lon": "13.329",
		"val": 15338.7,
		"typ": "nat"
	},
	{
		"year": 1995,
		"party": "CDU",
		"name": "Handels AG KapHag Vermögensanlagen",
		"street": "Fasanenstraße 81",
		"plz": "10623",
		"city": "Berlin",
		"lat": "52.5076",
		"lon": "13.3273",
		"val": 12782.25,
		"typ": "jur"
	},
	{
		"year": 1995,
		"party": "CDU",
		"name": "Franz Haniel & Cie. GmbH",
		"street": "Franz-Haniel-Platz 1",
		"plz": "47119",
		"city": "Duisburg",
		"lat": "51.4632",
		"lon": "6.7328",
		"val": 15338.7,
		"typ": "jur"
	},
	{
		"year": 1995,
		"party": "CDU",
		"name": "Hopmeier, Fritz",
		"street": "Fabrikstraße 5",
		"plz": "73728",
		"city": "Esslingen am Neckar",
		"lat": "48.7394",
		"lon": "9.3061",
		"val": 10328.06,
		"typ": "nat"
	},
	{
		"year": 1995,
		"party": "CDU",
		"name": "Jimgen, Peter",
		"street": "Gustav-Heinemann-Ufer 54",
		"plz": "50968",
		"city": "Köln",
		"lat": "50.9109",
		"lon": "6.9615",
		"val": 14827.41,
		"typ": "nat"
	},
	{
		"year": 1995,
		"party": "CDU",
		"name": "Kappel Bau Union AG",
		"street": "Pampower Straße 54",
		"plz": "19061",
		"city": "Schwerin",
		"lat": "53.5992",
		"lon": "11.404",
		"val": 25564.5,
		"typ": "jur"
	},
	{
		"year": 1995,
		"party": "CDU",
		"name": "Liegenschaftenverwaltung GmbH Rossenray",
		"street": "Gladbecker Straße 413",
		"plz": "45326",
		"city": "Essen",
		"lat": "51.4844",
		"lon": "7.005",
		"val": 12782.25,
		"typ": "jur"
	},
	{
		"year": 1995,
		"party": "CDU",
		"name": "Linde AG",
		"street": "Abraham-Lincoln-Straße 21",
		"plz": "65189",
		"city": "Wiesbaden",
		"lat": "50.071",
		"lon": "8.2565",
		"val": 11248.38,
		"typ": "jur"
	},
	{
		"year": 1995,
		"party": "CDU",
		"name": "Mannesmann AG",
		"street": "Mannesmannufer 2",
		"plz": "40213",
		"city": "Düsseldorf",
		"lat": "51.2249",
		"lon": "6.7743",
		"val": 11759.67,
		"typ": "jur"
	},
	{
		"year": 1995,
		"party": "CDU",
		"name": "Märkischer Arbeitgeberverband e.V.",
		"street": "Kömerstraße 25",
		"plz": "58095",
		"city": "Hagen",
		"lat": "51.3606",
		"lon": "7.4785",
		"val": 20451.6,
		"typ": "jur"
	},
	{
		"year": 1995,
		"party": "CDU",
		"name": "Maschinenfabrik Ihimpf GmbH & Co.",
		"street": "Johann-Maus-Straße 2",
		"plz": "71254",
		"city": "Ditzingen",
		"lat": "48.8217",
		"lon": "9.0647",
		"val": 11248.38,
		"typ": "jur"
	},
	{
		"year": 1995,
		"party": "CDU",
		"name": "ME-LE Verwaltungs GmbH Co. Versorgungstechnik KG",
		"street": "Eggesiner Straße 9c",
		"plz": "17378",
		"city": "Torgelow",
		"lat": "53.6333",
		"lon": "14.0167",
		"val": 15338.7,
		"typ": "jur"
	},
	{
		"year": 1995,
		"party": "CDU",
		"name": "Meeteren, Udo, van",
		"street": "Jägerhofstraße 29",
		"plz": "40479",
		"city": "Düsseldorf",
		"lat": "51.2167",
		"lon": "6.7667",
		"val": 13293.54,
		"typ": "nat"
	},
	{
		"year": 1995,
		"party": "CDU",
		"name": "Möbel Walther AG",
		"street": "Rabenaustraße 3-9",
		"plz": "63584",
		"city": "Gründau",
		"lat": "50.2064",
		"lon": "9.1388",
		"val": 12782.25,
		"typ": "jur"
	},
	{
		"year": 1995,
		"party": "CDU",
		"name": "Montan Grundstücksgesellschaft",
		"street": "Gladbecker Straße 413",
		"plz": "45326",
		"city": "Essen",
		"lat": "51.4844",
		"lon": "7.005",
		"val": 18508.7,
		"typ": "jur"
	},
	{
		"year": 1995,
		"party": "CDU",
		"name": "Naber, Conrad",
		"street": "Warfer Landstraße 54",
		"plz": "28357",
		"city": "Bremen",
		"lat": "53.1178",
		"lon": "8.8947",
		"val": 15338.7,
		"typ": "nat"
	},
	{
		"year": 1995,
		"party": "CDU",
		"name": "Neumüller, Heinz",
		"street": "Meerweg 30-32",
		"plz": "26133",
		"city": "Oldenburg (Oldenburg)",
		"lat": "53.1156",
		"lon": "8.2159",
		"val": 15338.7,
		"typ": "nat"
	},
	{
		"year": 1995,
		"party": "CDU",
		"name": "Nordrhein-Westfälischer Handwerkstag",
		"street": "Georg-Schulhoff-Platz 1",
		"plz": "40221",
		"city": "Düsseldorf",
		"lat": "51.2002",
		"lon": "6.7564",
		"val": 10634.83,
		"typ": "jur"
	},
	{
		"year": 1995,
		"party": "CDU",
		"name": "Pack, Doris, MdEP",
		"street": "An der Weißen Eiche",
		"plz": "66129",
		"city": "Saarbrücken",
		"lat": "49.2333",
		"lon": "7",
		"val": 10522.35,
		"typ": "nat"
	},
	{
		"year": 1995,
		"party": "CDU",
		"name": "Schäfer Partner Ingenieurgesellschaft für technische Gesamtplanung mbH",
		"street": "Gustav-Mahler-Straße 2",
		"plz": "17358",
		"city": "Torgelow",
		"lat": "53.6333",
		"lon": "14.0167",
		"val": 15338.7,
		"typ": "jur"
	},
	{
		"year": 1995,
		"party": "CDU",
		"name": "Thermoselect S. A.",
		"street": "Kaiserstraße 86",
		"plz": "45468",
		"city": "Mülheim an der Ruhr",
		"lat": "51.4268",
		"lon": "6.8806",
		"val": 51129,
		"typ": "jur"
	},
	{
		"year": 1995,
		"party": "CDU",
		"name": "Verband der Metallindustrie Baden-Württemberg e.V.",
		"street": "Löffelstraße 22-24",
		"plz": "70597",
		"city": "Stuttgart",
		"lat": "48.7667",
		"lon": "9.1833",
		"val": 205282.94,
		"typ": "jur"
	},
	{
		"year": 1995,
		"party": "CDU",
		"name": "Verband der Metall- und Elektroindustrie Nordrhein-Westfalen e.V.",
		"street": "Uerdinger Straße 58-62",
		"plz": "40474",
		"city": "Düsseldorf",
		"lat": "51.2696",
		"lon": "6.748",
		"val": 217298.25,
		"typ": "jur"
	},
	{
		"year": 1995,
		"party": "CDU",
		"name": "Verband der Nord-Westdeutschen Textilindustrie e.V.",
		"street": "Moltkestraße 19",
		"plz": "48151",
		"city": "Münster",
		"lat": "51.951",
		"lon": "7.6181",
		"val": 12782.25,
		"typ": "jur"
	},
	{
		"year": 1995,
		"party": "CDU",
		"name": "Verband der Chemischen Industrie e.V.",
		"street": "Karlstraße 21",
		"plz": "60329",
		"city": "Frankfurt am Main",
		"lat": "50.106",
		"lon": "8.6627",
		"val": 41670.14,
		"typ": "jur"
	},
	{
		"year": 1995,
		"party": "CDU",
		"name": "Weiland, Dieter",
		"street": "Eisvogelweg 21",
		"plz": "24146",
		"city": "Kiel",
		"lat": "54.3333",
		"lon": "10.1333",
		"val": 14288.42,
		"typ": "nat"
	},
	{
		"year": 1995,
		"party": "CDU",
		"name": "Neuling, Christian-Alexander",
		"street": "Ringbahnstraße 8A",
		"plz": "10711",
		"city": "Berlin",
		"lat": "52.4958",
		"lon": "13.2871",
		"val": 11657.41,
		"typ": "nat"
	},
	{
		"year": 1995,
		"party": "CDU",
		"name": "Wittgenstein, Casimir, Prinz",
		"street": "Friedrich-Ebert-Anlage 32",
		"plz": "60325",
		"city": "Frankfurt am Main",
		"lat": "50.1136",
		"lon": "8.6578",
		"val": 13605.43,
		"typ": "nat"
	},
	{
		"year": 1995,
		"party": "CDU",
		"name": "Wittgensteiner Kuranstalt GmbH",
		"street": "Im Herrengarten 1",
		"plz": "57319",
		"city": "Bad Berleburg",
		"lat": "51.0386",
		"lon": "8.4166",
		"val": 20451.6,
		"typ": "jur"
	},
	{
		"year": 1995,
		"party": "CDU",
		"name": "Wüstenrot Holding GmbH",
		"street": "Hohenzollernstraße 46",
		"plz": "71638",
		"city": "Ludwigsburg",
		"lat": "48.8909",
		"lon": "9.1898",
		"val": 11759.67,
		"typ": "jur"
	},
	{
		"year": 1995,
		"party": "CDU",
		"name": "Zielinsky, Norbert",
		"street": "Barkensweg 50",
		"plz": "26670",
		"city": "Uplengen",
		"lat": "53.3055",
		"lon": "7.7512",
		"val": 12782.25,
		"typ": "nat"
	},
	{
		"year": 1995,
		"party": "SPD",
		"name": "Audi AG",
		"street": "",
		"plz": "85045",
		"city": "Ingolstadt",
		"lat": "48.7667",
		"lon": "11.4147",
		"val": 11248.38,
		"typ": "jur"
	},
	{
		"year": 1995,
		"party": "SPD",
		"name": "Bertelsmann AG",
		"street": "C.-Bertelsmann-Straße 270",
		"plz": "33335",
		"city": "Gütersloh",
		"lat": "51.9316",
		"lon": "8.4599",
		"val": 12782.25,
		"typ": "jur"
	},
	{
		"year": 1995,
		"party": "SPD",
		"name": "Daimler Benz AG",
		"street": "",
		"plz": "70546",
		"city": "Stuttgart",
		"lat": "48.7667",
		"lon": "9.1833",
		"val": 89475.75,
		"typ": "jur"
	},
	{
		"year": 1995,
		"party": "SPD",
		"name": "Fischer, Eberhard",
		"street": "Im Vogelgesang 2a",
		"plz": "36251",
		"city": "Bad Hersfeld",
		"lat": "50.884",
		"lon": "9.7024",
		"val": 11754.56,
		"typ": "nat"
	},
	{
		"year": 1995,
		"party": "SPD",
		"name": "Frankenpost Verlag",
		"street": "Poststraße 9/11",
		"plz": "95012",
		"city": "Hof",
		"lat": "50.3209",
		"lon": "11.9172",
		"val": 16719.18,
		"typ": "jur"
	},
	{
		"year": 1995,
		"party": "SPD",
		"name": "Hansa-Haus Grundst. Gesellschaft",
		"street": "Gladbecker Straße 413",
		"plz": "45326",
		"city": "Essen",
		"lat": "51.4844",
		"lon": "7.005",
		"val": 11759.67,
		"typ": "jur"
	},
	{
		"year": 1995,
		"party": "SPD",
		"name": "Hartmann, Uwe",
		"street": "Auf der Halle 23",
		"plz": "64711",
		"city": "Erbach",
		"lat": "49.6489",
		"lon": "8.997",
		"val": 12696.54,
		"typ": "nat"
	},
	{
		"year": 1995,
		"party": "SPD",
		"name": "Hiersemann, Karl-Heinz",
		"street": "Dammstraße 38b",
		"plz": "91083",
		"city": "Baiersdorf",
		"lat": "49.6538",
		"lon": "11.0312",
		"val": 11501.47,
		"typ": "nat"
	},
	{
		"year": 1995,
		"party": "SPD",
		"name": "Ing. Winkler GmbH & Co. KG",
		"street": "Annastraße 5",
		"plz": "14532",
		"city": "Stahnsdorf",
		"lat": "52.3585",
		"lon": "13.1918",
		"val": 17537.25,
		"typ": "jur"
	},
	{
		"year": 1995,
		"party": "SPD",
		"name": "Interprojekt Wohnbauten GmbH",
		"street": "Katharina-Heimroth Ufer 1",
		"plz": "10787",
		"city": "Berlin",
		"lat": "52.5167",
		"lon": "13.4",
		"val": 38346.75,
		"typ": "jur"
	},
	{
		"year": 1995,
		"party": "SPD",
		"name": "Jean Grein (Fa.)",
		"street": "Ober Saulheimer Straße 6",
		"plz": "55286",
		"city": "Wörrstadt",
		"lat": "49.8473",
		"lon": "8.1118",
		"val": 12565.21,
		"typ": "jur"
	},
	{
		"year": 1995,
		"party": "SPD",
		"name": "Keilhack, Irma",
		"street": "Brockdorffstraße 23 A",
		"plz": "22149",
		"city": "Hamburg",
		"lat": "53.55",
		"lon": "10",
		"val": 10302.49,
		"typ": "nat"
	},
	{
		"year": 1995,
		"party": "SPD",
		"name": "Mehler, Gerd",
		"street": "Hauptstraße 51",
		"plz": "65439",
		"city": "Flörsheim",
		"lat": "50.0273",
		"lon": "8.424",
		"val": 16916.07,
		"typ": "nat"
	},
	{
		"year": 1995,
		"party": "SPD",
		"name": "Montan Grundstücksgesellschaft",
		"street": "Gladbecker Straße 413",
		"plz": "45326",
		"city": "Essen",
		"lat": "51.4844",
		"lon": "7.005",
		"val": 23008.05,
		"typ": "jur"
	},
	{
		"year": 1995,
		"party": "SPD",
		"name": "Mösti, Fritz",
		"street": "Lerchenstraße 20",
		"plz": "92693",
		"city": "Eslarn",
		"lat": "49.5833",
		"lon": "12.5333",
		"val": 11900.97,
		"typ": "nat"
	},
	{
		"year": 1995,
		"party": "SPD",
		"name": "Müller, Jutta",
		"street": "Kurt-Schumacher-Straße 52",
		"plz": "66333",
		"city": "Völklingen",
		"lat": "49.2398",
		"lon": "6.8417",
		"val": 12782.25,
		"typ": "nat"
	},
	{
		"year": 1995,
		"party": "SPD",
		"name": "Ostermann GmbH & Co. KG",
		"street": "Annenstraße 120",
		"plz": "58453",
		"city": "Witten",
		"lat": "51.4434",
		"lon": "7.3633",
		"val": 14024.07,
		"typ": "jur"
	},
	{
		"year": 1995,
		"party": "SPD",
		"name": "Peek & Cloppenburg KG",
		"street": "Berliner Allee 2",
		"plz": "40212",
		"city": "Düsseldorf",
		"lat": "51.223",
		"lon": "6.7827",
		"val": 20451.6,
		"typ": "jur"
	},
	{
		"year": 1995,
		"party": "SPD",
		"name": "Schmidt, Helmut",
		"street": "Flanhard 35",
		"plz": "42281",
		"city": "Wuppertal",
		"lat": "51.2878",
		"lon": "7.194",
		"val": 10226.82,
		"typ": "nat"
	},
	{
		"year": 1995,
		"party": "SPD",
		"name": "Schultz, Reinhard",
		"street": "Otto-Wels-Straße 5",
		"plz": "48351",
		"city": "Everswinkel",
		"lat": "51.9333",
		"lon": "7.85",
		"val": 11452.9,
		"typ": "nat"
	},
	{
		"year": 1995,
		"party": "SPD",
		"name": "Spielbank Berlin GmbH",
		"street": "Budapester Straße Europa Center",
		"plz": "10789",
		"city": "Berlin",
		"lat": "52.5023",
		"lon": "13.341",
		"val": 19429.02,
		"typ": "jur"
	},
	{
		"year": 1995,
		"party": "SPD",
		"name": "Verband der Chemischen Industrie e.V.",
		"street": "Karlstraße 21",
		"plz": "60329",
		"city": "Frankfurt am Main",
		"lat": "50.106",
		"lon": "8.6627",
		"val": 12782.25,
		"typ": "jur"
	},
	{
		"year": 1995,
		"party": "SPD",
		"name": "Verband der Metall- und Elektroindustrie Nordrhein-Westfalen e.V.",
		"street": "Uerdinger Straße 58-62",
		"plz": "40474",
		"city": "Düsseldorf",
		"lat": "51.2696",
		"lon": "6.748",
		"val": 25564.5,
		"typ": "jur"
	},
	{
		"year": 1995,
		"party": "SPD",
		"name": "Zilius, Jan",
		"street": "Am Platzhof 3",
		"plz": "50935",
		"city": "Köln",
		"lat": "50.9263",
		"lon": "6.9011",
		"val": 16872.57,
		"typ": "nat"
	},
	{
		"year": 1995,
		"party": "CSU",
		"name": "Städtereinigung Friedrich Hofmann GmbH & Co.",
		"street": "Kirchenstraße 22",
		"plz": "91186",
		"city": "Büchenbach",
		"lat": "49.2678",
		"lon": "11.0589",
		"val": 14316.12,
		"typ": "jur"
	},
	{
		"year": 1995,
		"party": "CSU",
		"name": "Klinge, Günther, Senator h.c.",
		"street": "Postfach 80 10 21",
		"plz": "81610",
		"city": "München",
		"lat": "48.1475",
		"lon": "11.4635",
		"val": 12782.25,
		"typ": "nat"
	},
	{
		"year": 1995,
		"party": "CSU",
		"name": "Consumer Electronic Handelshaus GmbH",
		"street": "Denninger Straße 15",
		"plz": "81679",
		"city": "München",
		"lat": "48.1512",
		"lon": "11.6103",
		"val": 17895.15,
		"typ": "jur"
	},
	{
		"year": 1995,
		"party": "CSU",
		"name": "Nordwest Handel AG",
		"street": "Berliner Straße 26-30",
		"plz": "58135",
		"city": "Hagen",
		"lat": "51.3474",
		"lon": "7.4274",
		"val": 17037.21,
		"typ": "jur"
	},
	{
		"year": 1995,
		"party": "CSU",
		"name": "Verband der Bayerischen Chemischen Industrie e.V.",
		"street": "Innstraße 15",
		"plz": "81679",
		"city": "München",
		"lat": "48.1512",
		"lon": "11.6103",
		"val": 51129,
		"typ": "jur"
	},
	{
		"year": 1995,
		"party": "CSU",
		"name": "Verband der Bayerischen Metallindustrie e.V.",
		"street": "Brienner Straße 7",
		"plz": "80333",
		"city": "München",
		"lat": "48.1452",
		"lon": "11.5668",
		"val": 214741.8,
		"typ": "jur"
	},
	{
		"year": 1995,
		"party": "GRÜNE",
		"name": "Al-Wazir, Tarek",
		"street": "Berliner Straße 243",
		"plz": "63067",
		"city": "Offenbach",
		"lat": "50.1069",
		"lon": "8.7344",
		"val": 10262.29,
		"typ": "nat"
	},
	{
		"year": 1995,
		"party": "GRÜNE",
		"name": "Altmann, Elisabeth",
		"street": "Weinberger Straße 3",
		"plz": "91224",
		"city": "Pommelsbrunn",
		"lat": "49.5",
		"lon": "11.5167",
		"val": 10455.37,
		"typ": "nat"
	},
	{
		"year": 1995,
		"party": "GRÜNE",
		"name": "Altmann, Gisela",
		"street": "Am Wald 29",
		"plz": "26605",
		"city": "Aurich",
		"lat": "53.4839",
		"lon": "7.5151",
		"val": 14827.41,
		"typ": "nat"
	},
	{
		"year": 1995,
		"party": "GRÜNE",
		"name": "Bensei, Udo",
		"street": "Bornstraße 2",
		"plz": "12163",
		"city": "Berlin",
		"lat": "52.4615",
		"lon": "13.3253",
		"val": 14878.54,
		"typ": "nat"
	},
	{
		"year": 1995,
		"party": "GRÜNE",
		"name": "Beminger, Matthias",
		"street": "Goethestraße 148",
		"plz": "34119",
		"city": "Kassel",
		"lat": "51.3152",
		"lon": "9.4647",
		"val": 10601.6,
		"typ": "nat"
	},
	{
		"year": 1995,
		"party": "GRÜNE",
		"name": "Bertelsmann AG",
		"street": "C.-Bertelsmann-Straße 270",
		"plz": "33335",
		"city": "Gütersloh",
		"lat": "51.9316",
		"lon": "8.4599",
		"val": 15338.7,
		"typ": "jur"
	},
	{
		"year": 1995,
		"party": "GRÜNE",
		"name": "Bruns, Anna",
		"street": "Kurt Küchler-Straße 41",
		"plz": "22609",
		"city": "Hamburg",
		"lat": "53.5701",
		"lon": "9.8654",
		"val": 20860.63,
		"typ": "nat"
	},
	{
		"year": 1995,
		"party": "GRÜNE",
		"name": "Buntenbach, Annelie",
		"street": "Arndtstraße 38",
		"plz": "33615",
		"city": "Bielefeld",
		"lat": "52.0307",
		"lon": "8.5133",
		"val": 15723.7,
		"typ": "nat"
	},
	{
		"year": 1995,
		"party": "GRÜNE",
		"name": "Busch, Manfred, Dr.",
		"street": "Neckarstraße 14",
		"plz": "40219",
		"city": "Düsseldorf",
		"lat": "51.2125",
		"lon": "6.7637",
		"val": 15001.25,
		"typ": "nat"
	},
	{
		"year": 1995,
		"party": "GRÜNE",
		"name": "Cohn-Bendit, Daniel",
		"street": "Schumannstraße 23a",
		"plz": "60325",
		"city": "Frankfurt am Main",
		"lat": "50.1136",
		"lon": "8.6578",
		"val": 13344.67,
		"typ": "nat"
	},
	{
		"year": 1995,
		"party": "GRÜNE",
		"name": "Dietert-Scheuer, Anke",
		"street": "Blaukissenstieg 10",
		"plz": "22297",
		"city": "Hamburg",
		"lat": "53.6023",
		"lon": "10.0252",
		"val": 14577.9,
		"typ": "nat"
	},
	{
		"year": 1995,
		"party": "GRÜNE",
		"name": "Eichstätt-Bohlig, Franziska",
		"street": "Droysenstraße 6",
		"plz": "10629",
		"city": "Berlin",
		"lat": "52.5032",
		"lon": "13.3134",
		"val": 10602.11,
		"typ": "nat"
	},
	{
		"year": 1995,
		"party": "GRÜNE",
		"name": "Fischer, Andrea",
		"street": "Fritz-Reuer-Straße 4",
		"plz": "10827",
		"city": "Berlin",
		"lat": "52.4853",
		"lon": "13.355",
		"val": 14577.9,
		"typ": "nat"
	},
	{
		"year": 1995,
		"party": "GRÜNE",
		"name": "Fischer, Joseph",
		"street": "Ulrichstraße 18",
		"plz": "60433",
		"city": "Frankfurt am Main",
		"lat": "50.1167",
		"lon": "8.6833",
		"val": 17375.68,
		"typ": "nat"
	},
	{
		"year": 1995,
		"party": "GRÜNE",
		"name": "Fritsche, Erika Gerhard, und",
		"street": "Am Forst 29",
		"plz": "56379",
		"city": "Winden",
		"lat": "50.3333",
		"lon": "7.8333",
		"val": 22044.7,
		"typ": "nat"
	},
	{
		"year": 1995,
		"party": "GRÜNE",
		"name": "Grüber, Katrin, Dr.",
		"street": "Andreastraße 21",
		"plz": "40213",
		"city": "Düsseldorf",
		"lat": "51.2249",
		"lon": "6.7743",
		"val": 16644.02,
		"typ": "nat"
	},
	{
		"year": 1995,
		"party": "GRÜNE",
		"name": "Grützmacher, Friedel",
		"street": "Lortzingstraße 10g",
		"plz": "76744",
		"city": "Wörth am Rhein",
		"lat": "49.0479",
		"lon": "8.2714",
		"val": 27522.74,
		"typ": "nat"
	},
	{
		"year": 1995,
		"party": "GRÜNE",
		"name": "Häfner, Gerald",
		"street": "Fürststraße 5",
		"plz": "80638",
		"city": "München",
		"lat": "48.1595",
		"lon": "11.4932",
		"val": 14846.74,
		"typ": "nat"
	},
	{
		"year": 1995,
		"party": "GRÜNE",
		"name": "Hageman, Karin",
		"street": "Kropbacher Weg 20",
		"plz": "35398",
		"city": "Gießen",
		"lat": "50.5833",
		"lon": "8.65",
		"val": 10966.66,
		"typ": "nat"
	},
	{
		"year": 1995,
		"party": "GRÜNE",
		"name": "Hermann, Dorothea",
		"street": "Rosastraße 61",
		"plz": "45130",
		"city": "Essen",
		"lat": "51.434",
		"lon": "7.0161",
		"val": 10693.12,
		"typ": "nat"
	},
	{
		"year": 1995,
		"party": "GRÜNE",
		"name": "Herde, Fritz",
		"street": "Wiesengrund 2a",
		"plz": "36039",
		"city": "Fulda",
		"lat": "50.5732",
		"lon": "9.6824",
		"val": 11148.17,
		"typ": "nat"
	},
	{
		"year": 1995,
		"party": "GRÜNE",
		"name": "Hoefken, Ulrike",
		"street": "In der Kumme 80",
		"plz": "53175",
		"city": "Bonn",
		"lat": "50.6975",
		"lon": "7.1417",
		"val": 12573.64,
		"typ": "nat"
	},
	{
		"year": 1995,
		"party": "GRÜNE",
		"name": "Höhn, Bärbel",
		"street": "Giesbeitstraße 15",
		"plz": "46117",
		"city": "Oberhausen",
		"lat": "51.5005",
		"lon": "6.8859",
		"val": 15258.43,
		"typ": "nat"
	},
	{
		"year": 1995,
		"party": "GRÜNE",
		"name": "Hürten, Marianne",
		"street": "Augustastraße 8",
		"plz": "51065",
		"city": "Köln",
		"lat": "50.9578",
		"lon": "7.0056",
		"val": 15952.25,
		"typ": "nat"
	},
	{
		"year": 1995,
		"party": "GRÜNE",
		"name": "Hustedt, Michaela",
		"street": "Markt 6",
		"plz": "53111",
		"city": "Bonn",
		"lat": "50.7362",
		"lon": "7.1002",
		"val": 15924.64,
		"typ": "nat"
	},
	{
		"year": 1995,
		"party": "GRÜNE",
		"name": "Jensen, Jörg",
		"street": "Ringstraße 83",
		"plz": "12203",
		"city": "Berlin",
		"lat": "52.5167",
		"lon": "13.4",
		"val": 18476.9,
		"typ": "nat"
	},
	{
		"year": 1995,
		"party": "GRÜNE",
		"name": "Kingieen, Hildegund",
		"street": "Am Teich 5",
		"plz": "58093",
		"city": "Hagen",
		"lat": "51.3657",
		"lon": "7.5207",
		"val": 13636.1,
		"typ": "nat"
	},
	{
		"year": 1995,
		"party": "GRÜNE",
		"name": "Kiper, Manuel",
		"street": "Senator-Bauer-Straße 30",
		"plz": "30625",
		"city": "Hannover",
		"lat": "52.3795",
		"lon": "9.8075",
		"val": 13037.9,
		"typ": "nat"
	},
	{
		"year": 1995,
		"party": "GRÜNE",
		"name": "Kreutz, Daniel",
		"street": "Brüsseler Straße 35",
		"plz": "50674",
		"city": "Köln",
		"lat": "50.9325",
		"lon": "6.941",
		"val": 14123.87,
		"typ": "nat"
	},
	{
		"year": 1995,
		"party": "GRÜNE",
		"name": "Lemke, Steffi",
		"street": "Karlstraße 29",
		"plz": "06844",
		"city": "Dessau",
		"lat": "51.8441",
		"lon": "12.2475",
		"val": 13318.08,
		"typ": "nat"
	},
	{
		"year": 1995,
		"party": "GRÜNE",
		"name": "Lippelt, Helmut",
		"street": "Heinrich-Heine-Straße 50",
		"plz": "30173",
		"city": "Hannover",
		"lat": "52.3586",
		"lon": "9.7558",
		"val": 14577.9,
		"typ": "nat"
	},
	{
		"year": 1995,
		"party": "GRÜNE",
		"name": "Lippmann-Kosten, Heidi",
		"street": "Nonnenstieg 47",
		"plz": "37075",
		"city": "Göttingen",
		"lat": "51.5509",
		"lon": "9.9328",
		"val": 10517.24,
		"typ": "nat"
	},
	{
		"year": 1995,
		"party": "GRÜNE",
		"name": "Lütkes, Arne",
		"street": "Eichendorffstraße 24",
		"plz": "50823",
		"city": "Köln",
		"lat": "50.9488",
		"lon": "6.9195",
		"val": 12642.16,
		"typ": "nat"
	},
	{
		"year": 1995,
		"party": "GRÜNE",
		"name": "Maier, Wilfried",
		"street": "Johnsallee 51",
		"plz": "20148",
		"city": "Hamburg",
		"lat": "53.55",
		"lon": "10",
		"val": 20921.99,
		"typ": "nat"
	},
	{
		"year": 1995,
		"party": "GRÜNE",
		"name": "Majewsky, Agnes",
		"street": "Brandstraße 34",
		"plz": "52159",
		"city": "Roetgen",
		"lat": "50.65",
		"lon": "6.2",
		"val": 11507.6,
		"typ": "nat"
	},
	{
		"year": 1995,
		"party": "GRÜNE",
		"name": "Marx, Maria",
		"street": "Luisenstraße 53",
		"plz": "63263",
		"city": "Neu-Isenburg",
		"lat": "50.05",
		"lon": "8.7",
		"val": 10752.68,
		"typ": "nat"
	},
	{
		"year": 1995,
		"party": "GRÜNE",
		"name": "Medecke, Ernst",
		"street": "Spatenteich 1",
		"plz": "20099",
		"city": "Hamburg",
		"lat": "53.55",
		"lon": "10",
		"val": 10368.96,
		"typ": "nat"
	},
	{
		"year": 1995,
		"party": "GRÜNE",
		"name": "Mohr, Jürgen",
		"street": "Seyditzstraße 33",
		"plz": "44263",
		"city": "Dortmund",
		"lat": "51.4847",
		"lon": "7.4996",
		"val": 12652.89,
		"typ": "nat"
	},
	{
		"year": 1995,
		"party": "GRÜNE",
		"name": "Möller, Antje",
		"street": "Mansteinstraße 18",
		"plz": "20253",
		"city": "Hamburg",
		"lat": "53.5818",
		"lon": "9.9719",
		"val": 18866.6,
		"typ": "nat"
	},
	{
		"year": 1995,
		"party": "GRÜNE",
		"name": "Müller, Eckehard",
		"street": "Zollernstraße 10",
		"plz": "59269",
		"city": "Beckum",
		"lat": "51.7564",
		"lon": "8.0178",
		"val": 10505.48,
		"typ": "nat"
	},
	{
		"year": 1995,
		"party": "GRÜNE",
		"name": "Müller, Kerstin",
		"street": "Wahlenstraße 1",
		"plz": "50823",
		"city": "Köln",
		"lat": "50.9488",
		"lon": "6.9195",
		"val": 12746.46,
		"typ": "nat"
	},
	{
		"year": 1995,
		"party": "GRÜNE",
		"name": "Nachtwei, Winfried",
		"street": "Nordhornstraße 51",
		"plz": "48161",
		"city": "Münster",
		"lat": "51.9471",
		"lon": "7.5446",
		"val": 13012.33,
		"typ": "nat"
	},
	{
		"year": 1995,
		"party": "GRÜNE",
		"name": "Nacken, Gisela",
		"street": "Preussweg 3",
		"plz": "52074",
		"city": "Aachen",
		"lat": "50.7479",
		"lon": "6.0485",
		"val": 11657.41,
		"typ": "nat"
	},
	{
		"year": 1995,
		"party": "GRÜNE",
		"name": "Özdemir, Cem",
		"street": "Jakob-Ringler-Allee 12",
		"plz": "71638",
		"city": "Ludwigsburg",
		"lat": "48.8909",
		"lon": "9.1898",
		"val": 16046.33,
		"typ": "nat"
	},
	{
		"year": 1995,
		"party": "GRÜNE",
		"name": "Pohlmann, Horst",
		"street": "Beckstraße 18",
		"plz": "46117",
		"city": "Oberhausen",
		"lat": "51.5005",
		"lon": "6.8859",
		"val": 11199.25,
		"typ": "nat"
	},
	{
		"year": 1995,
		"party": "GRÜNE",
		"name": "Probst, Simone",
		"street": "Neunheuser Straße 48",
		"plz": "33102",
		"city": "Paderborn",
		"lat": "51.7171",
		"lon": "8.7417",
		"val": 15958.38,
		"typ": "nat"
	},
	{
		"year": 1995,
		"party": "GRÜNE",
		"name": "Richter, W.-J.",
		"street": "Landsberger Straße 33",
		"plz": "45481",
		"city": "Mülheim an der Ruhr",
		"lat": "51.4004",
		"lon": "6.8773",
		"val": 10744.76,
		"typ": "nat"
	},
	{
		"year": 1995,
		"party": "GRÜNE",
		"name": "Ring, Rosemarie",
		"street": "Liebigstraße 8",
		"plz": "44139",
		"city": "Dortmund",
		"lat": "51.4995",
		"lon": "7.4717",
		"val": 11202.36,
		"typ": "nat"
	},
	{
		"year": 1995,
		"party": "GRÜNE",
		"name": "Ritter, Sabine",
		"street": "Hauptstraße 20",
		"plz": "10827",
		"city": "Berlin",
		"lat": "52.4853",
		"lon": "13.355",
		"val": 17711.09,
		"typ": "nat"
	},
	{
		"year": 1995,
		"party": "GRÜNE",
		"name": "Romber, Erika",
		"street": "Skalitzer Straße 43",
		"plz": "10997",
		"city": "Berlin Kreuzberg",
		"lat": "52.5001",
		"lon": "13.4369",
		"val": 17874.7,
		"typ": "nat"
	},
	{
		"year": 1995,
		"party": "GRÜNE",
		"name": "Roth, Claudia",
		"street": "Hennesenbergstraße 28",
		"plz": "53332",
		"city": "Bornheim",
		"lat": "50.7631",
		"lon": "6.9827",
		"val": 10679.78,
		"typ": "nat"
	},
	{
		"year": 1995,
		"party": "GRÜNE",
		"name": "Saibold, Hannelore",
		"street": "Am Käsberg 1",
		"plz": "94501",
		"city": "Aldersbach",
		"lat": "48.6",
		"lon": "13.0833",
		"val": 12835.42,
		"typ": "nat"
	},
	{
		"year": 1995,
		"party": "GRÜNE",
		"name": "Schewe-Gerigk, Irmingard",
		"street": "Zur Windmühle 33",
		"plz": "58313",
		"city": "Herdecke",
		"lat": "51.4121",
		"lon": "7.4313",
		"val": 15038.06,
		"typ": "nat"
	},
	{
		"year": 1995,
		"party": "GRÜNE",
		"name": "Schlemann, Barbara",
		"street": "Wedemhove 106",
		"plz": "48157",
		"city": "Münster",
		"lat": "52.0003",
		"lon": "7.6893",
		"val": 11250.43,
		"typ": "nat"
	},
	{
		"year": 1995,
		"party": "GRÜNE",
		"name": "Schmidt, Albert",
		"street": "Pfünzerstraße 17",
		"plz": "85122",
		"city": "Hitzhofen",
		"lat": "48.85",
		"lon": "11.3167",
		"val": 13436.7,
		"typ": "nat"
	},
	{
		"year": 1995,
		"party": "GRÜNE",
		"name": "Schönberger, Ursula",
		"street": "Sophienstraße 14",
		"plz": "38118",
		"city": "Braunschweig",
		"lat": "52.259",
		"lon": "10.5002",
		"val": 17228.43,
		"typ": "nat"
	},
	{
		"year": 1995,
		"party": "GRÜNE",
		"name": "Schumann, Brigitte",
		"street": "Rüttenscheider Straße 18",
		"plz": "45128",
		"city": "Essen",
		"lat": "51.4457",
		"lon": "7.0103",
		"val": 14277.77,
		"typ": "nat"
	},
	{
		"year": 1995,
		"party": "GRÜNE",
		"name": "Schwarz, Antonia",
		"street": "Südenstraße 12",
		"plz": "12169",
		"city": "Berlin",
		"lat": "52.4584",
		"lon": "13.3367",
		"val": 17383.86,
		"typ": "nat"
	},
	{
		"year": 1995,
		"party": "GRÜNE",
		"name": "Schwarzenau, Annette",
		"street": "Grunwaldstraße 56",
		"plz": "10825",
		"city": "Berlin",
		"lat": "52.4889",
		"lon": "13.3438",
		"val": 13723.02,
		"typ": "nat"
	},
	{
		"year": 1995,
		"party": "GRÜNE",
		"name": "Schwarzenholz, Chr.",
		"street": "Konrad-Adenauer-Ring",
		"plz": "38159",
		"city": "Vechelde",
		"lat": "52.2602",
		"lon": "10.3699",
		"val": 11115.44,
		"typ": "nat"
	},
	{
		"year": 1995,
		"party": "GRÜNE",
		"name": "Sott, Emst",
		"street": "Robert-Koch-Straße 4",
		"plz": "45879",
		"city": "Gelsenkirchen",
		"lat": "51.5087",
		"lon": "7.0968",
		"val": 10361.8,
		"typ": "nat"
	},
	{
		"year": 1995,
		"party": "GRÜNE",
		"name": "Steenblock, Rainder",
		"street": "Kirchenstraße 52",
		"plz": "25335",
		"city": "Bokholt-Hanredder",
		"lat": "53.7833",
		"lon": "9.7167",
		"val": 12270.96,
		"typ": "nat"
	},
	{
		"year": 1995,
		"party": "GRÜNE",
		"name": "Steindor, Marina",
		"street": "Cappeler Straße 32",
		"plz": "35039",
		"city": "Marburg",
		"lat": "50.8098",
		"lon": "8.7773",
		"val": 11514.25,
		"typ": "nat"
	},
	{
		"year": 1995,
		"party": "GRÜNE",
		"name": "Steinheuser, Monika",
		"street": "Dortmunder Straße 231",
		"plz": "45665",
		"city": "Recklinghausen",
		"lat": "51.6017",
		"lon": "7.2183",
		"val": 10996.83,
		"typ": "nat"
	},
	{
		"year": 1995,
		"party": "GRÜNE",
		"name": "Steizing, Christian",
		"street": "Bahnhofstraße 148",
		"plz": "67480",
		"city": "Edenkoben",
		"lat": "49.2804",
		"lon": "8.1293",
		"val": 14577.9,
		"typ": "nat"
	},
	{
		"year": 1995,
		"party": "GRÜNE",
		"name": "Such, Manfred",
		"street": "Kisastraße 24",
		"plz": "59457",
		"city": "Werl",
		"lat": "51.5537",
		"lon": "7.9073",
		"val": 10865.17,
		"typ": "nat"
	},
	{
		"year": 1995,
		"party": "GRÜNE",
		"name": "Ullrich, Hubert",
		"street": "Hauptstraße 145",
		"plz": "66740",
		"city": "Saarlouis",
		"lat": "49.3074",
		"lon": "6.76",
		"val": 12694.05,
		"typ": "nat"
	},
	{
		"year": 1995,
		"party": "GRÜNE",
		"name": "Volkholz, Sybille",
		"street": "Melanchthonstraße 19",
		"plz": "10557",
		"city": "Berlin",
		"lat": "52.5268",
		"lon": "13.3605",
		"val": 11289.28,
		"typ": "nat"
	},
	{
		"year": 1995,
		"party": "GRÜNE",
		"name": "Wendt, Michael",
		"street": "Lilienthalstraße 20",
		"plz": "10965",
		"city": "Berlin Kreuzberg",
		"lat": "52.4887",
		"lon": "13.3781",
		"val": 20050.75,
		"typ": "nat"
	},
	{
		"year": 1995,
		"party": "GRÜNE",
		"name": "Werner, Gisela",
		"street": "Kreuzstraße 51",
		"plz": "41748",
		"city": "Viersen",
		"lat": "51.25",
		"lon": "6.3833",
		"val": 10580.64,
		"typ": "nat"
	},
	{
		"year": 1995,
		"party": "GRÜNE",
		"name": "Wolf, Dorothea",
		"street": "Ellemstraße 9a",
		"plz": "26548",
		"city": "Norderney",
		"lat": "53.7072",
		"lon": "7.147",
		"val": 11882.38,
		"typ": "nat"
	},
	{
		"year": 1995,
		"party": "PDS",
		"name": "Böttcher, Maritta",
		"street": "Waldauer Weg 43",
		"plz": "14913",
		"city": "Jüterbog",
		"lat": "51.9801",
		"lon": "13.1013",
		"val": 10445.65,
		"typ": "nat"
	},
	{
		"year": 1995,
		"party": "PDS",
		"name": "Elm, Ludwig, Prof. Dr.",
		"street": "Schillbachstraße 2",
		"plz": "07743",
		"city": "Jena",
		"lat": "50.9326",
		"lon": "11.5868",
		"val": 11703.43,
		"typ": "nat"
	},
	{
		"year": 1995,
		"party": "PDS",
		"name": "Heiser, Gerhard, Prof. Dr.",
		"street": "Seipelweg 6",
		"plz": "04347",
		"city": "Leipzig",
		"lat": "51.3637",
		"lon": "12.4312",
		"val": 25564.5,
		"typ": "nat"
	},
	{
		"year": 1995,
		"party": "PDS",
		"name": "Jehnichen, Heike",
		"street": "Johannesbrunne 5",
		"plz": "38820",
		"city": "Halberstadt",
		"lat": "51.8883",
		"lon": "11.0572",
		"val": 11122.19,
		"typ": "nat"
	},
	{
		"year": 1995,
		"party": "PDS",
		"name": "Kutzmutz, Rolf",
		"street": "Mendelsohn-Bartholdy-Straße 7",
		"plz": "14480",
		"city": "Potsdam",
		"lat": "52.3689",
		"lon": "13.1273",
		"val": 10261.08,
		"typ": "nat"
	},
	{
		"year": 1995,
		"party": "PDS",
		"name": "Rössel, Uwe-Jens, Dr.",
		"street": "Bausdorfer Straße 42",
		"plz": "12621",
		"city": "Berlin",
		"lat": "52.5167",
		"lon": "13.4",
		"val": 10737.09,
		"typ": "nat"
	},
	{
		"year": 1995,
		"party": "FDP",
		"name": "Allianz Versicherung AG",
		"street": "Königinstraße 28",
		"plz": "80802",
		"city": "München",
		"lat": "48.1665",
		"lon": "11.5903",
		"val": 15338.7,
		"typ": "jur"
	},
	{
		"year": 1995,
		"party": "FDP",
		"name": "Bertelsmann AG",
		"street": "Carl-Bertelsmann-Str.",
		"plz": "33335",
		"city": "Gütersloh",
		"lat": "51.9316",
		"lon": "8.4599",
		"val": 15338.7,
		"typ": "jur"
	},
	{
		"year": 1995,
		"party": "FDP",
		"name": "Genscher, Hans-Dietrich",
		"street": "Bundeshaus",
		"plz": "53113",
		"city": "Bonn",
		"lat": "50.7231",
		"lon": "7.1068",
		"val": 12270.96,
		"typ": "nat"
	},
	{
		"year": 1995,
		"party": "FDP",
		"name": "Mayer, Fritz",
		"street": "Bruehlstraße 25",
		"plz": "63179",
		"city": "Obertshausen",
		"lat": "50.0697",
		"lon": "8.844",
		"val": 13613.1,
		"typ": "nat"
	},
	{
		"year": 1995,
		"party": "FDP",
		"name": "Mayer, Ulrich",
		"street": "Bruehlstraße 25",
		"plz": "63179",
		"city": "Obertshausen",
		"lat": "50.0697",
		"lon": "8.844",
		"val": 16173.03,
		"typ": "nat"
	},
	{
		"year": 1995,
		"party": "FDP",
		"name": "Upmeier, Werner",
		"street": "Mexikoplatz 4",
		"plz": "14163",
		"city": "Berlin",
		"lat": "52.5167",
		"lon": "13.4",
		"val": 72603.18,
		"typ": "nat"
	},
	{
		"year": 1995,
		"party": "FDP",
		"name": "Verband der Metallindustrie Baden-Württemberg e.V.",
		"street": "Löffelstraße 2",
		"plz": "70597",
		"city": "Stuttgart",
		"lat": "48.7667",
		"lon": "9.1833",
		"val": 51129,
		"typ": "jur"
	},
	{
		"year": 1995,
		"party": "FDP",
		"name": "Verband der Chemischen Industrie e.V.",
		"street": "Karlstraße 23",
		"plz": "60329",
		"city": "Frankfurt am Main",
		"lat": "50.106",
		"lon": "8.6627",
		"val": 16105.64,
		"typ": "jur"
	},
	{
		"year": 1995,
		"party": "FDP",
		"name": "Verband Metallindustrie e.V.",
		"street": "Uerdinger Straße 58-62",
		"plz": "40474",
		"city": "Düsseldorf",
		"lat": "51.2696",
		"lon": "6.748",
		"val": 41925.78,
		"typ": "jur"
	},
	{
		"year": 1995,
		"party": "FDP",
		"name": "Verein der Bayerischen Metallindustrie e.V.",
		"street": "Brienner Straße 7",
		"plz": "80333",
		"city": "München",
		"lat": "48.1452",
		"lon": "11.5668",
		"val": 30677.4,
		"typ": "jur"
	},
	{
		"year": 1995,
		"party": "FDP",
		"name": "Vogel, Robert",
		"street": "Esplanade 37",
		"plz": "20354",
		"city": "Hamburg",
		"lat": "53.5568",
		"lon": "9.9898",
		"val": 11173.48,
		"typ": "nat"
	},
	{
		"year": 1995,
		"party": "FDP",
		"name": "Wickel, Rudolf",
		"street": "Karl-Barth-Straße 29",
		"plz": "53129",
		"city": "Bonn",
		"lat": "50.7207",
		"lon": "7.107",
		"val": 10893.54,
		"typ": "nat"
	},
	{
		"year": 1995,
		"party": "CDU",
		"name": "Hermann Mint GmbH & Co.",
		"street": "Dradenauer Hauptdeich 7",
		"plz": "21129",
		"city": "Hamburg",
		"lat": "53.5194",
		"lon": "9.8994",
		"val": 12782.25,
		"typ": "jur"
	},
	{
		"year": 1995,
		"party": "CDU",
		"name": "Otremba, Dietmar",
		"street": "Katharinenstraße 18",
		"plz": "10711",
		"city": "Berlin",
		"lat": "52.4958",
		"lon": "13.2871",
		"val": 26867.27,
		"typ": "nat"
	},
	{
		"year": 1995,
		"party": "CDU",
		"name": "Stoll, Heinz-Peter",
		"street": "Stollweg 1",
		"plz": "72760",
		"city": "Reutlingen",
		"lat": "48.5094",
		"lon": "9.204",
		"val": 12782.25,
		"typ": "nat"
	},
	{
		"year": 1995,
		"party": "CDU",
		"name": "Union Beton Niedersachsen GmbH & Co. KG",
		"street": "Herrenstraße 3-5",
		"plz": "30159",
		"city": "Hannover",
		"lat": "52.3736",
		"lon": "9.7371",
		"val": 16872.57,
		"typ": "jur"
	},
	{
		"year": 1995,
		"party": "CDU",
		"name": "Ferrero OHG",
		"street": "Hainer Weg 120",
		"plz": "60599",
		"city": "Frankfurt am Main",
		"lat": "50.0994",
		"lon": "8.7142",
		"val": 25564.5,
		"typ": "jur"
	},
	{
		"year": 1995,
		"party": "CSU",
		"name": "Bayerische Hypotheken und Wechselbank AG",
		"street": "Arabellastraße 12",
		"plz": "81925",
		"city": "München",
		"lat": "48.1642",
		"lon": "11.6218",
		"val": 31699.98,
		"typ": "jur"
	},
	{
		"year": 1995,
		"party": "CSU",
		"name": "BMW Bayerische Motoren Werke AG",
		"street": "Petuelring 130",
		"plz": "80809",
		"city": "München",
		"lat": "48.1787",
		"lon": "11.5617",
		"val": 49851.8,
		"typ": "jur"
	},
	{
		"year": 1995,
		"party": "CSU",
		"name": "Daimler Benz AG",
		"street": "",
		"plz": "70546",
		"city": "Stuttgart",
		"lat": "48.7667",
		"lon": "9.1833",
		"val": 38346.75,
		"typ": "jur"
	},
	{
		"year": 1995,
		"party": "CSU",
		"name": "Mac Mode GmbH & Co.",
		"street": "Industriestraße 2",
		"plz": "93192",
		"city": "Wald",
		"lat": "49.15",
		"lon": "12.35",
		"val": 15338.7,
		"typ": "jur"
	},
	{
		"year": 1995,
		"party": "CSU",
		"name": "Süd-Chemie AG",
		"street": "Lenbachplatz 6",
		"plz": "80333",
		"city": "München",
		"lat": "48.1452",
		"lon": "11.5668",
		"val": 25564.5,
		"typ": "jur"
	},
	{
		"year": 1995,
		"party": "CSU",
		"name": "Verband der Chemischen Industrie e.V.",
		"street": "Karlstraße 21",
		"plz": "60329",
		"city": "Frankfurt am Main",
		"lat": "50.106",
		"lon": "8.6627",
		"val": 31444.34,
		"typ": "jur"
	},
	{
		"year": 1995,
		"party": "GRÜNE",
		"name": "Hälfter, Gerald",
		"street": "Fürststraße 5",
		"plz": "80638",
		"city": "München",
		"lat": "48.1595",
		"lon": "11.4932",
		"val": 14846.74,
		"typ": "nat"
	},
	{
		"year": 1995,
		"party": "GRÜNE",
		"name": "Jordan, Dirk",
		"street": "Fontanepromenade 9",
		"plz": "10967",
		"city": "Berlin Kreuzberg",
		"lat": "52.4921",
		"lon": "13.4137",
		"val": 18902.39,
		"typ": "nat"
	},
	{
		"year": 1995,
		"party": "GRÜNE",
		"name": "Schoppe, Waltraud",
		"street": "Albringhausen 44",
		"plz": "27211",
		"city": "Bassum",
		"lat": "52.8749",
		"lon": "8.7416",
		"val": 13252.64,
		"typ": "nat"
	},
	{
		"year": 1995,
		"party": "GRÜNE",
		"name": "Seip, Senta",
		"street": "Am Rosenhang 4",
		"plz": "65549",
		"city": "Limburg an der Lahn",
		"lat": "50.383",
		"lon": "8.0611",
		"val": 16043,
		"typ": "nat"
	},
	{
		"year": 1995,
		"party": "FDP",
		"name": "Daimler Benz AG",
		"street": "Postfach 60 02 02",
		"plz": "70302",
		"city": "Stuttgart",
		"lat": "48.7667",
		"lon": "9.1833",
		"val": 38346.75,
		"typ": "jur"
	},
	{
		"year": 1996,
		"party": "CDU",
		"name": "Allianz Versicherungs-AG",
		"street": "Königinstraße 28",
		"plz": "80802",
		"city": "München",
		"lat": "48.1665",
		"lon": "11.5903",
		"val": 20451.6,
		"typ": "jur"
	},
	{
		"year": 1996,
		"party": "CDU",
		"name": "Assekurranz Schirmer und Grundheber GmbH",
		"street": "Brotstraße 21-22",
		"plz": "54290",
		"city": "Trier",
		"lat": "49.7537",
		"lon": "6.6393",
		"val": 12270.96,
		"typ": "jur"
	},
	{
		"year": 1996,
		"party": "CDU",
		"name": "Audi AG",
		"street": "Auto Union Str.",
		"plz": "85045",
		"city": "Ingolstadt",
		"lat": "48.7667",
		"lon": "11.4147",
		"val": 15338.7,
		"typ": "jur"
	},
	{
		"year": 1996,
		"party": "CDU",
		"name": "Bernd Schirmer WACO Planen + Bauen",
		"street": "Brotstraße 21-22",
		"plz": "54290",
		"city": "Trier",
		"lat": "49.7537",
		"lon": "6.6393",
		"val": 12270.96,
		"typ": "jur"
	},
	{
		"year": 1996,
		"party": "CDU",
		"name": "BMW AG",
		"street": "BMW Haus Petuelring 130",
		"plz": "80788",
		"city": "München",
		"lat": "48.1345",
		"lon": "11.571",
		"val": 144403.64,
		"typ": "jur"
	},
	{
		"year": 1996,
		"party": "CDU",
		"name": "Bundesverband der deutschen Volks- und Raiffeisenbanken e.V.",
		"street": "Heussallee 5",
		"plz": "53113",
		"city": "Bonn",
		"lat": "50.7231",
		"lon": "7.1068",
		"val": 12782.25,
		"typ": "jur"
	},
	{
		"year": 1996,
		"party": "CDU",
		"name": "Burda, Frieder",
		"street": "Kaiser-Wilhelm-Straße 8",
		"plz": "76530",
		"city": "Baden-Baden",
		"lat": "48.75",
		"lon": "8.25",
		"val": 15338.7,
		"typ": "nat"
	},
	{
		"year": 1996,
		"party": "CDU",
		"name": "Dahlem, Thomas",
		"street": "Saarlandstraße 53",
		"plz": "66271",
		"city": "Kleinblittersdorf",
		"lat": "49.15",
		"lon": "7.0333",
		"val": 12782.25,
		"typ": "nat"
	},
	{
		"year": 1996,
		"party": "CDU",
		"name": "Daimler Benz AG",
		"street": "Mercedesstreiße 136",
		"plz": "70546",
		"city": "Stuttgart",
		"lat": "48.7667",
		"lon": "9.1833",
		"val": 29399.18,
		"typ": "jur"
	},
	{
		"year": 1996,
		"party": "CDU",
		"name": "Daimler Benz Aerospace AG",
		"street": "Postfach 80 1109",
		"plz": "81663",
		"city": "München",
		"lat": "48.1475",
		"lon": "11.4635",
		"val": 30677.4,
		"typ": "jur"
	},
	{
		"year": 1996,
		"party": "CDU",
		"name": "Ed. Züblin AG",
		"street": "Albstadtweg 3",
		"plz": "70567",
		"city": "Stuttgart",
		"lat": "48.7667",
		"lon": "9.1833",
		"val": 15338.7,
		"typ": "jur"
	},
	{
		"year": 1996,
		"party": "CDU",
		"name": "Erich Utsch KG",
		"street": "Mareinhütte 49",
		"plz": "57080",
		"city": "Siegen",
		"lat": "50.834",
		"lon": "8.0219",
		"val": 12884.51,
		"typ": "jur"
	},
	{
		"year": 1996,
		"party": "CDU",
		"name": "GAM Gesellschaft für aktuelle Meinungsbildung",
		"street": "Abt-Michael-Straße 3",
		"plz": "36251",
		"city": "Bad Hersfeld",
		"lat": "50.884",
		"lon": "9.7024",
		"val": 13997.69,
		"typ": "jur"
	},
	{
		"year": 1996,
		"party": "CDU",
		"name": "Grupp, Alexander, Dr.",
		"street": "Bergstraße 29",
		"plz": "73072",
		"city": "Donzdorf",
		"lat": "48.687",
		"lon": "9.8102",
		"val": 15338.7,
		"typ": "nat"
	},
	{
		"year": 1996,
		"party": "CDU",
		"name": "Höffner Möbelgesellschaft mbH& Co. KG",
		"street": "Am Rondell 1",
		"plz": "15732",
		"city": "Waltersdorf",
		"lat": "52.366",
		"lon": "13.5746",
		"val": 16131.71,
		"typ": "jur"
	},
	{
		"year": 1996,
		"party": "CDU",
		"name": "Industrieverband Steine und Erben Baden-Württemberg e.V.",
		"street": "Robert-Bosch-Straße 30",
		"plz": "73760",
		"city": "Ostfildern",
		"lat": "48.7216",
		"lon": "9.2751",
		"val": 15338.7,
		"typ": "jur"
	},
	{
		"year": 1996,
		"party": "CDU",
		"name": "LSV Löblein Service- und Verwaltungs-GmbH",
		"street": "Jäckstraße 35",
		"plz": "96052",
		"city": "Bamberg",
		"lat": "49.9083",
		"lon": "10.8951",
		"val": 25564.5,
		"typ": "jur"
	},
	{
		"year": 1996,
		"party": "CDU",
		"name": "Mercedes Benz AG",
		"street": "Postfach",
		"plz": "70546",
		"city": "Stuttgart",
		"lat": "48.7667",
		"lon": "9.1833",
		"val": 12782.25,
		"typ": "jur"
	},
	{
		"year": 1996,
		"party": "CDU",
		"name": "Möbel Walther Berlin-Brandenburg GmbH",
		"street": "Frankfurter Chaussee 50",
		"plz": "15370",
		"city": "Fredersdorf-Vogelsdorf",
		"lat": "52.5",
		"lon": "13.7333",
		"val": 12782.25,
		"typ": "jur"
	},
	{
		"year": 1996,
		"party": "CDU",
		"name": "Portlandzementwerk Dotternhausen Rudolf Rohrbach KG",
		"street": "Dormettinger Straße 23",
		"plz": "72359",
		"city": "Dotternhausen",
		"lat": "48.2333",
		"lon": "8.8",
		"val": 15338.7,
		"typ": "jur"
	},
	{
		"year": 1996,
		"party": "CDU",
		"name": "Schackmaier, Anni",
		"street": "An den Reben 13",
		"plz": "55122",
		"city": "Mainz",
		"lat": "49.995",
		"lon": "8.237",
		"val": 40903.2,
		"typ": "nat"
	},
	{
		"year": 1996,
		"party": "CDU",
		"name": "Schleicher, Helmut",
		"street": "Hochwaldsteig 19",
		"plz": "14089",
		"city": "Berlin",
		"lat": "52.5167",
		"lon": "13.4",
		"val": 25564.5,
		"typ": "nat"
	},
	{
		"year": 1996,
		"party": "CDU",
		"name": "Schuster, Wolfgang, Dr.",
		"street": "Traubergstraße 62",
		"plz": "70186",
		"city": "Stuttgart",
		"lat": "48.7667",
		"lon": "9.1833",
		"val": 15338.7,
		"typ": "nat"
	},
	{
		"year": 1996,
		"party": "CDU",
		"name": "Stute, Ewald",
		"street": "Breslauer Straße 28a",
		"plz": "33098",
		"city": "Paderborn",
		"lat": "51.7136",
		"lon": "8.7554",
		"val": 12782.25,
		"typ": "nat"
	},
	{
		"year": 1996,
		"party": "CDU",
		"name": "Textilverband Nord-West e.V.",
		"street": "Moltkestraße 19",
		"plz": "48151",
		"city": "Münster",
		"lat": "51.951",
		"lon": "7.6181",
		"val": 28120.95,
		"typ": "jur"
	},
	{
		"year": 1996,
		"party": "CDU",
		"name": "Verband der Chemischen Industrie e.V.",
		"street": "Karlstraße 21",
		"plz": "60329",
		"city": "Frankfurt am Main",
		"lat": "50.106",
		"lon": "8.6627",
		"val": 44226.58,
		"typ": "jur"
	},
	{
		"year": 1996,
		"party": "CDU",
		"name": "Verband der Metall- und Elektroindustrie Nordrhein-Westfalen e.V.",
		"street": "Uerdinger Straße 58 - 62",
		"plz": "40474",
		"city": "Düsseldorf",
		"lat": "51.2696",
		"lon": "6.748",
		"val": 166169.25,
		"typ": "jur"
	},
	{
		"year": 1996,
		"party": "CDU",
		"name": "Weber, Peter",
		"street": "Wissmannstraße 19",
		"plz": "14193",
		"city": "Berlin",
		"lat": "52.4947",
		"lon": "13.2852",
		"val": 54963.68,
		"typ": "nat"
	},
	{
		"year": 1996,
		"party": "CDU",
		"name": "Weisenburger Bau GmbH",
		"street": "Werkstraße 11",
		"plz": "76437",
		"city": "Rastatt",
		"lat": "48.8572",
		"lon": "8.1959",
		"val": 15338.7,
		"typ": "jur"
	},
	{
		"year": 1996,
		"party": "CDU",
		"name": "Werkstoffvermarktungsgesellschaft für Sekundärrohstoffe mbH",
		"street": "Innungsstraße 40",
		"plz": "13509",
		"city": "Berlin",
		"lat": "52.5167",
		"lon": "13.4",
		"val": 12782.25,
		"typ": "jur"
	},
	{
		"year": 1996,
		"party": "CDU",
		"name": "Wittgenstein, Casimir, Prinz",
		"street": "Friedrich-Ebert-Anlage 32",
		"plz": "60325",
		"city": "Frankfurt am Main",
		"lat": "50.1136",
		"lon": "8.6578",
		"val": 11759.67,
		"typ": "nat"
	},
	{
		"year": 1996,
		"party": "CDU",
		"name": "Kreuz, Barbara",
		"street": "Fritz Quandtstraße 32",
		"plz": "54294",
		"city": "Trier",
		"lat": "49.744",
		"lon": "6.6188",
		"val": 12782.25,
		"typ": "nat"
	},
	{
		"year": 1996,
		"party": "CDU",
		"name": "Kreuz, Manfred",
		"street": "Fritz Quandtstraße 32",
		"plz": "54294",
		"city": "Trier",
		"lat": "49.744",
		"lon": "6.6188",
		"val": 12782.25,
		"typ": "nat"
	},
	{
		"year": 1996,
		"party": "CDU",
		"name": "Schaack, Werner",
		"street": "Südallee 43",
		"plz": "54290",
		"city": "Trier",
		"lat": "49.7537",
		"lon": "6.6393",
		"val": 25564.5,
		"typ": "nat"
	},
	{
		"year": 1996,
		"party": "CSU",
		"name": "BMW Bayerische Motoren Werke AG",
		"street": "Petuelring 130",
		"plz": "80809",
		"city": "München",
		"lat": "48.1787",
		"lon": "11.5617",
		"val": 45780.91,
		"typ": "jur"
	},
	{
		"year": 1996,
		"party": "CSU",
		"name": "Daimler-Benz AG",
		"street": "",
		"plz": "70546",
		"city": "Stuttgart",
		"lat": "48.7667",
		"lon": "9.1833",
		"val": 31955.62,
		"typ": "jur"
	},